2020-05-22 14-00-35 $IITRM,0.0,0.0,0.0,0.0,V,,,,,*1D
2020-05-22 14-00-35$WIMTW,20.2,C*0D
2020-05-22 14-00-35$WIMWD,006.3,T,006.3,M,008.1,N,004.1,M*56
2020-05-22 14-00-35$WIMWV,006.3,R,008.1,N,A*2F
2020-05-22 14-00-35$WIVWR,023.7,L,008.1,N,004.1,M,014.9,K*4F
2020-05-22 14-00-35$WIVWT,023.7,L,008.1,N,004.1,M,014.9,K*49
2020-05-22 14-00-35$SDDBK,00.0,f,00.0,M,00.0,F*29
2020-05-22 14-00-35$SDDBS,00.0,f,00.0,M,00.0,F*31
2020-05-22 14-00-35$SDDBT,00.0,f,00.0,M,00.0,F*36
2020-05-22 14-00-35$SDDPT,0.0,0.0,*7B
2020-05-22 14-00-35$VDVBW,00.0,00.0,A,00.0,00.0,A,00.0,A,00.0,A*51
2020-05-22 14-00-35$VWVHW,30.0,T,30.0,M,00.0,N,00.0,K*54
2020-05-22 14-00-35$VWVLW,0.000,N,0.000,N*4C
2020-05-22 14-00-35$GPDTM,W84,,0,N,0,E,0,W84*71
2020-05-22 14-00-35$GPGLL,0129.12974,N,00049.64887,E,061205.92,A,A*69
2020-05-22 14-00-35$GPGSA,A,3,2,6,15,23,26,31,,,,,,,0.0,0.0,0.0*35
2020-05-22 14-00-35$GPGSV,2,1,6,2,72,243,089,6,47,230,066,15,71,207,091,23,2,007,076*71
2020-05-22 14-00-35$GPRMC,061205.92,A,0129.12974,N,00049.64887,E,0005.0,030.0,220520,0.0,W,A*16
2020-05-22 14-00-35$GPVTG,030.0,T,030.0,M,0005.0,N,00009.3,K,A*1C
2020-05-22 14-00-35$GPZDA,061205.93,22,05,2020,0,0*69
2020-05-22 14-00-36$WIMTW,20.2,C*0D
2020-05-22 14-00-36$WIMTW,20.0,C*0F
2020-05-22 14-00-36$WIMWD,006.5,T,006.5,M,008.2,N,004.2,M*56
2020-05-22 14-00-36$WIMWV,006.5,R,008.2,N,A*2A
2020-05-22 14-00-36$WIMWD,000.0,T,000.0,M,000.0,N,000.0,M*5A
2020-05-22 14-00-36$WIVWR,023.5,L,008.2,N,004.2,M,015.2,K*47
2020-05-22 14-00-36$WIMWV,000.0,T,000.0,N,A*25
2020-05-22 14-00-36$WIVWT,023.5,L,008.2,N,004.2,M,015.2,K*41
2020-05-22 14-00-36$WIVWR,030.0,L,000.0,N,000.0,M,000.0,K*4A
2020-05-22 14-00-36$IITRM,0.0,0.0,0.0,0.0,V,,,,,*1D
2020-05-22 14-00-36$SDDBK,00.0,f,00.0,M,00.0,F*29
2020-05-22 14-00-36$WIVWT,030.0,L,000.0,N,000.0,M,000.0,K*4C
2020-05-22 14-00-36$SDDBS,00.0,f,00.0,M,00.0,F*31
2020-05-22 14-00-36$SDDBT,00.0,f,00.0,M,00.0,F*36
2020-05-22 14-00-36$SDDPT,0.0,0.0,*7B
2020-05-22 14-00-36$VDVBW,04.0,02.0,A,02.0,00.0,A,02.0,A,02.0,A*55
2020-05-22 14-00-36$VDVBW,00.0,00.0,A,00.0,00.0,A,00.0,A,00.0,A*51
2020-05-22 14-00-36$VWVHW,30.0,T,30.0,M,00.0,N,00.0,K*54
2020-05-22 14-00-36$VWVHW,30.0,T,30.0,M,04.0,N,07.4,K*53
2020-05-22 14-00-36$GPGGA,061206.05,0134.80813,S,04654.47587,E,1,6,0.0,4,M,50.0,M,0,0*50
2020-05-22 14-00-36$VWVLW,62.481,N,61.481,N*4F
2020-05-22 14-00-36$VWVLW,0.000,N,0.000,N*4C
2020-05-22 14-00-36$GPGLL,0134.80813,S,04654.47587,E,061206.37,A,A*7D
2020-05-22 14-00-36$GPGSA,A,3,3,6,15,23,28,31,,,,,,,0.0,0.0,0.0*3A
2020-05-22 14-00-36$GPGSV,2,1,6,3,63,259,039,6,48,186,064,15,80,159,070,23,73,082,076*41
2020-05-22 14-00-36$HCHDG,30.0,01.2,E,00.0,W*60
2020-05-22 14-00-36$GPGSV,2,2,6,28,78,177,004,31,83,345,027*41
2020-05-22 14-00-36$HEHDM,31.2,M*1F
2020-05-22 14-00-36$GPRMC,061206.04,A,0134.80813,S,04654.47587,E,0000.9,009.3,220520,0.0,W,A*07
2020-05-22 14-00-36$HEHDT,30.0,T*1C
2020-05-22 14-00-36$GPVTG,009.3,T,009.3,M,0000.9,N,00001.7,K,A*1C
2020-05-22 14-00-36$HETHS,30.0,A*1E
2020-05-22 14-00-36$GPDTM,W84,,0,N,0,E,0,W84*71
2020-05-22 14-00-36$GPZDA,061206.05,22,05,2020,0,0*65
2020-05-22 14-00-36$GPGGA,061205.93,0129.12974,N,00049.64887,E,1,6,0.0,1398,M,50.0,M,,*73
2020-05-22 14-00-36$TIROT,00.0,A*0B
2020-05-22 14-00-36$GPGLL,0129.13094,N,00049.64956,E,061206.92,A,A*61
2020-05-22 14-00-36$GPGSA,A,3,2,6,15,23,26,31,,,,,,,0.0,0.0,0.0*35
2020-05-22 14-00-36$GPGSV,2,1,6,2,12,129,067,6,14,120,051,15,9,347,025,23,72,102,030*7C
2020-05-22 14-00-36$GPGSV,2,2,6,26,80,215,022,31,31,343,083*4A
2020-05-22 14-00-36$GPRMC,061206.92,A,0129.13094,N,00049.64956,E,0005.0,030.0,220520,0.0,W,A*1E
2020-05-22 14-00-36$GPVTG,030.0,T,030.0,M,0005.0,N,00009.3,K,A*1C
2020-05-22 14-00-36$IIHRM,0.0,0.0,0.0,0.0,V,,,,,*01
2020-05-22 14-00-36!AIVDM,1,1,,A,1<5UJi@P099EGn?f?h90G@C7250l,0*0B
2020-05-22 14-00-36$IITRM,0.0,0.0,0.0,0.0,V,,,,,*1D
2020-05-22 14-00-36$IIHRM,0.0,0.0,0.0,0.0,V,,,,,*01
2020-05-22 14-00-37$WIMTW,20.2,C*0D
2020-05-22 14-00-37$WIMWD,008.1,T,008.1,M,008.0,N,004.1,M*57
2020-05-22 14-00-37$WIMTW,20.0,C*0F
2020-05-22 14-00-37$WIMWD,000.0,T,000.0,M,000.0,N,000.0,M*5A
2020-05-22 14-00-37$WIMWV,008.1,R,008.0,N,A*22
2020-05-22 14-00-37$WIMWV,000.0,T,000.0,N,A*25
2020-05-22 14-00-37$WIVWR,021.9,L,008.0,N,004.1,M,014.8,K*43
2020-05-22 14-00-37$SDDBK,00.0,f,00.0,M,00.0,F*29
2020-05-22 14-00-37$WIVWR,030.0,L,000.0,N,000.0,M,000.0,K*4A
2020-05-22 14-00-37$WIVWT,021.9,L,008.0,N,004.1,M,014.8,K*45
2020-05-22 14-00-37$SDDBS,00.0,f,00.0,M,00.0,F*31
2020-05-22 14-00-37$WIVWT,030.0,L,000.0,N,000.0,M,000.0,K*4C
2020-05-22 14-00-37$SDDBT,00.0,f,00.0,M,00.0,F*36
2020-05-22 14-00-37$SDDPT,0.0,0.0,*7B
2020-05-22 14-00-37$VDVBW,00.0,00.0,A,00.0,00.0,A,00.0,A,00.0,A*51
2020-05-22 14-00-37$VDVBW,04.0,02.0,A,02.0,00.0,A,02.0,A,02.0,A*55
2020-05-22 14-00-37$VWVHW,30.0,T,30.0,M,00.0,N,00.0,K*54
2020-05-22 14-00-37$VWVHW,30.0,T,30.0,M,04.0,N,07.4,K*53
2020-05-22 14-00-37$VWVLW,62.481,N,61.481,N*4F
2020-05-22 14-00-37$VWVLW,0.000,N,0.000,N*4C
2020-05-22 14-00-37$HCHDG,30.0,01.2,E,00.0,W*60
2020-05-22 14-00-37$GPGGA,061207.04,0134.80788,S,04654.47591,E,1,6,0.0,4,M,50.0,M,0,0*5A
2020-05-22 14-00-37$HEHDM,31.2,M*1F
2020-05-22 14-00-37$GPGLL,0134.80788,S,04654.47591,E,061207.35,A,A*74
2020-05-22 14-00-37$GPGSA,A,3,3,6,15,23,28,31,,,,,,,0.0,0.0,0.0*3A
2020-05-22 14-00-37$HEHDT,30.0,T*1C
2020-05-22 14-00-37$GPGSV,2,1,6,3,41,137,001,6,79,160,020,15,51,042,052,23,65,078,028*45
2020-05-22 14-00-37$HETHS,30.0,A*1E
2020-05-22 14-00-37$TIROT,00.0,A*0B
2020-05-22 14-00-37$GPGSV,2,2,6,28,12,028,050,31,32,115,038*44
2020-05-22 14-00-37$GPRMC,061207.03,A,0134.80788,S,04654.47591,E,0000.9,009.3,220520,0.0,W,A*0B
2020-05-22 14-00-37$GPVTG,009.3,T,009.3,M,0000.9,N,00001.7,K,A*1C
2020-05-22 14-00-37$GPDTM,W84,,0,N,0,E,0,W84*71
2020-05-22 14-00-37$GPGGA,061206.93,0129.13094,N,00049.64956,E,1,6,0.0,1398,M,50.0,M,,*7B
2020-05-22 14-00-37$GPZDA,061207.04,22,05,2020,0,0*65
2020-05-22 14-00-37$GPGLL,0129.13214,N,00049.65025,E,061207.92,A,A*66
2020-05-22 14-00-37$GPGSA,A,3,2,6,15,23,26,31,,,,,,,0.0,0.0,0.0*35
2020-05-22 14-00-37$GPGSV,2,1,6,2,6,265,020,6,71,092,021,15,54,147,074,23,3,042,064*41
2020-05-22 14-00-37$GPGSV,2,2,6,26,35,214,095,31,53,069,013*4F
2020-05-22 14-00-37$GPRMC,061207.93,A,0129.13214,N,00049.65025,E,0005.0,030.0,220520,0.0,W,A*18
2020-05-22 14-00-37$GPVTG,030.0,T,030.0,M,0005.0,N,00009.3,K,A*1C
2020-05-22 14-00-37!AIVDM,1,1,,A,1<5UJi@P099EGnAf?h9hG@C9250l,0*23
2020-05-22 14-00-38$WIMTW,20.2,C*0D
2020-05-22 14-00-38$WIMWD,007.0,T,007.0,M,008.2,N,004.2,M*56
2020-05-22 14-00-38$WIMWV,007.0,R,008.2,N,A*2E
2020-05-22 14-00-38$WIMTW,20.0,C*0F
2020-05-22 14-00-38$WIVWR,023.0,L,008.2,N,004.2,M,015.2,K*42
2020-05-22 14-00-38$WIMWD,000.0,T,000.0,M,000.0,N,000.0,M*5A
2020-05-22 14-00-38$SDDBK,00.0,f,00.0,M,00.0,F*29
2020-05-22 14-00-38$WIVWT,023.0,L,008.2,N,004.2,M,015.2,K*44
2020-05-22 14-00-38$WIMWV,000.0,T,000.0,N,A*25
2020-05-22 14-00-38$SDDBS,00.0,f,00.0,M,00.0,F*31
2020-05-22 14-00-38$SDDBT,00.0,f,00.0,M,00.0,F*36
2020-05-22 14-00-38$WIVWR,030.0,L,000.0,N,000.0,M,000.0,K*4A
2020-05-22 14-00-38$VDVBW,04.0,02.0,A,02.0,00.0,A,02.0,A,02.0,A*55
2020-05-22 14-00-38$VDVBW,00.0,00.0,A,00.0,00.0,A,00.0,A,00.0,A*51
2020-05-22 14-00-38$SDDPT,0.0,0.0,*7B
2020-05-22 14-00-38$WIVWT,030.0,L,000.0,N,000.0,M,000.0,K*4C
2020-05-22 14-00-38$VWVHW,30.0,T,30.0,M,04.0,N,07.4,K*53
2020-05-22 14-00-38$VWVHW,30.0,T,30.0,M,00.0,N,00.0,K*54
2020-05-22 14-00-38$VWVLW,62.482,N,61.482,N*4F
2020-05-22 14-00-38$VWVLW,0.000,N,0.000,N*4C
2020-05-22 14-00-38$HCHDG,30.0,01.2,E,00.0,W*60
2020-05-22 14-00-38$HEHDM,31.2,M*1F
2020-05-22 14-00-38$HEHDT,30.0,T*1C
2020-05-22 14-00-38$HETHS,30.0,A*1E
2020-05-22 14-00-38$TIROT,00.0,A*0B
2020-05-22 14-00-38$GPGGA,061208.06,0134.80763,S,04654.47595,E,1,6,0.0,4,M,50.0,M,0,0*56
2020-05-22 14-00-38$GPGLL,0134.80763,S,04654.47595,E,061208.46,A,A*7E
2020-05-22 14-00-38$GPGSA,A,3,3,6,15,23,28,31,,,,,,,0.0,0.0,0.0*3A
2020-05-22 14-00-38$GPGSV,2,1,6,3,29,253,005,6,8,130,018,15,61,143,097,23,44,126,054*7E
2020-05-22 14-00-38$GPGSV,2,2,6,28,78,068,097,31,44,259,018*4F
2020-05-22 14-00-38$GPRMC,061208.05,A,0134.80763,S,04654.47595,E,0000.9,009.3,220520,0.0,W,A*03
2020-05-22 14-00-38$GPDTM,W84,,0,N,0,E,0,W84*71
2020-05-22 14-00-38$GPVTG,009.3,T,009.3,M,0000.9,N,00001.7,K,A*1C
2020-05-22 14-00-38$GPGGA,061207.94,0129.13214,N,00049.65025,E,1,6,0.0,1398,M,50.0,M,,*7B
2020-05-22 14-00-38$GPZDA,061208.05,22,05,2020,0,0*6B
2020-05-22 14-00-38$GPGLL,0129.13334,N,00049.65094,E,061208.92,A,A*60
2020-05-22 14-00-38$GPGSA,A,3,2,6,15,23,26,31,,,,,,,0.0,0.0,0.0*35
2020-05-22 14-00-38$GPGSV,2,1,6,2,19,031,024,6,41,063,080,15,27,349,006,23,59,322,013*49
2020-05-22 14-00-38$GPGSV,2,2,6,26,33,323,070,31,14,273,079*41
2020-05-22 14-00-38$GPRMC,061208.92,A,0129.13334,N,00049.65094,E,0005.0,030.0,220520,0.0,W,A*1F
2020-05-22 14-00-38$GPVTG,030.0,T,030.0,M,0005.0,N,00009.3,K,A*1C
2020-05-22 14-00-38!AIVDM,1,1,,A,1<5UJi@P099EGnAf?h:@G@C;250l,0*0A
2020-05-22 14-00-39$WIMTW,20.2,C*0D
2020-05-22 14-00-39$WIMWD,008.4,T,008.4,M,008.2,N,004.2,M*56
2020-05-22 14-00-39$WIMWV,008.4,R,008.2,N,A*25
2020-05-22 14-00-39$SDDBK,00.0,f,00.0,M,00.0,F*29
2020-05-22 14-00-39$WIMTW,20.0,C*0F
2020-05-22 14-00-39$SDDBS,00.0,f,00.0,M,00.0,F*31
2020-05-22 14-00-39$WIVWR,021.6,L,008.2,N,004.2,M,015.1,K*45
2020-05-22 14-00-39$WIMWD,000.0,T,000.0,M,000.0,N,000.0,M*5A
2020-05-22 14-00-39$VDVBW,04.0,02.0,A,02.0,00.0,A,02.0,A,02.0,A*55
2020-05-22 14-00-39$VDVBW,00.0,00.0,A,00.0,00.0,A,00.0,A,00.0,A*51
2020-05-22 14-00-39$WIMWV,000.0,T,000.0,N,A*25
2020-05-22 14-00-39$WIVWT,021.6,L,008.2,N,004.2,M,015.1,K*43
2020-05-22 14-00-39$SDDBT,00.0,f,00.0,M,00.0,F*36
2020-05-22 14-00-39$VWVHW,30.0,T,30.0,M,04.0,N,07.4,K*53
2020-05-22 14-00-39$VWVHW,30.0,T,30.0,M,00.0,N,00.0,K*54
2020-05-22 14-00-39$SDDPT,0.0,0.0,*7B
2020-05-22 14-00-39$VWVLW,62.482,N,61.482,N*4F
2020-05-22 14-00-39$VWVLW,0.000,N,0.000,N*4C
2020-05-22 14-00-39$WIVWR,030.0,L,000.0,N,000.0,M,000.0,K*4A
2020-05-22 14-00-39$WIVWT,030.0,L,000.0,N,000.0,M,000.0,K*4C
2020-05-22 14-00-39$HCHDG,30.0,01.2,E,00.0,W*60
2020-05-22 14-00-39$HEHDM,31.2,M*1F
2020-05-22 14-00-39$HEHDT,30.0,T*1C
2020-05-22 14-00-39$HETHS,30.0,A*1E
2020-05-22 14-00-39$TIROT,00.0,A*0B
2020-05-22 14-00-39$GPGGA,061209.04,0134.80738,S,04654.47599,E,1,6,0.0,4,M,50.0,M,0,0*57
2020-05-22 14-00-39$GPGLL,0134.80738,S,04654.47599,E,061209.22,A,A*7F
2020-05-22 14-00-39$GPGSA,A,3,3,6,15,23,28,31,,,,,,,0.0,0.0,0.0*3A
2020-05-22 14-00-39$GPGSV,2,1,6,3,55,248,045,6,84,276,082,15,18,180,012,23,86,185,053*41
2020-05-22 14-00-39$GPGSV,2,2,6,28,32,335,099,31,77,353,098*47
2020-05-22 14-00-39$GPRMC,061209.02,A,0134.80738,S,04654.47599,E,0000.9,009.3,220520,0.0,W,A*07
2020-05-22 14-00-39$GPDTM,W84,,0,N,0,E,0,W84*71
2020-05-22 14-00-39$GPVTG,009.3,T,009.3,M,0000.9,N,00001.7,K,A*1C
2020-05-22 14-00-39$GPGLL,0129.13454,N,00049.65163,E,061209.92,A,A*69
2020-05-22 14-00-39$GPGSA,A,3,2,6,15,23,26,31,,,,,,,0.0,0.0,0.0*35
2020-05-22 14-00-39$GPZDA,061209.03,22,05,2020,0,0*6C
2020-05-22 14-00-39$GPGSV,2,1,6,2,35,193,068,6,61,043,066,15,8,065,084,23,70,306,017*7D
2020-05-22 14-00-39$GPGSV,2,2,6,26,66,062,045,31,13,013,066*4C
2020-05-22 14-00-39$GPRMC,061209.93,A,0129.13454,N,00049.65163,E,0005.0,030.0,220520,0.0,W,A*17
2020-05-22 14-00-39$GPVTG,030.0,T,030.0,M,0005.0,N,00009.3,K,A*1C
2020-05-22 14-00-39$GPZDA,061209.93,22,05,2020,0,0*65
2020-05-22 14-00-39!AIVDM,1,1,,A,1<5UJi@P099EGnCf?h;0G@C=250l,0*7F
2020-05-22 14-00-40$WIMTW,20.2,C*0D
2020-05-22 14-00-40$WIMWD,010.1,T,010.1,M,007.8,N,004.0,M*51
2020-05-22 14-00-40$VDVBW,04.0,02.0,A,02.0,00.0,A,02.0,A,02.0,A*55
2020-05-22 14-00-40$VDVBW,00.0,00.0,A,00.0,00.0,A,00.0,A,00.0,A*51
2020-05-22 14-00-40$SDDBK,00.0,f,00.0,M,00.0,F*29
2020-05-22 14-00-40$VWVHW,30.0,T,30.0,M,04.0,N,07.4,K*53
2020-05-22 14-00-40$WIMWV,010.1,R,007.8,N,A*2C
2020-05-22 14-00-40$VWVHW,30.0,T,30.0,M,00.0,N,00.0,K*54
2020-05-22 14-00-40$SDDBS,00.0,f,00.0,M,00.0,F*31
2020-05-22 14-00-40$WIMTW,20.0,C*0F
2020-05-22 14-00-40$VWVLW,62.483,N,61.483,N*4F
2020-05-22 14-00-40$WIVWR,019.9,L,007.8,N,004.0,M,014.5,K*43
2020-05-22 14-00-40$VWVLW,0.000,N,0.000,N*4C
2020-05-22 14-00-40$SDDBT,00.0,f,00.0,M,00.0,F*36
2020-05-22 14-00-40$WIMWD,000.0,T,000.0,M,000.0,N,000.0,M*5A
2020-05-22 14-00-40$WIMWV,000.0,T,000.0,N,A*25
2020-05-22 14-00-40$WIVWT,019.9,L,007.8,N,004.0,M,014.5,K*45
2020-05-22 14-00-40$SDDPT,0.0,0.0,*7B
2020-05-22 14-00-40$WIVWR,030.0,L,000.0,N,000.0,M,000.0,K*4A
2020-05-22 14-00-40$WIVWT,030.0,L,000.0,N,000.0,M,000.0,K*4C
2020-05-22 14-00-40$HCHDG,30.0,01.2,E,00.0,W*60
2020-05-22 14-00-40$HEHDM,31.2,M*1F
2020-05-22 14-00-40$HEHDT,30.0,T*1C
2020-05-22 14-00-40$HETHS,30.0,A*1E
2020-05-22 14-00-40$TIROT,00.0,A*0B
2020-05-22 14-00-40$GPGGA,061210.05,0134.80713,S,04654.47603,E,1,6,0.0,4,M,50.0,M,0,0*57
2020-05-22 14-00-40$GPGLL,0134.80713,S,04654.47603,E,061210.34,A,A*79
2020-05-22 14-00-40$GPGSA,A,3,3,6,15,23,28,31,,,,,,,0.0,0.0,0.0*3A
2020-05-22 14-00-40$GPGSV,2,1,6,3,33,045,023,6,36,267,078,15,48,358,086,23,1,144,014*7C
2020-05-22 14-00-40$GPGSV,2,2,6,28,12,095,022,31,35,200,076*4D
2020-05-22 14-00-40$GPDTM,W84,,0,N,0,E,0,W84*71
2020-05-22 14-00-40$GPGLL,0129.13574,N,00049.65232,E,061210.92,A,A*65
2020-05-22 14-00-40$GPRMC,061210.03,A,0134.80713,S,04654.47603,E,0000.9,009.3,220520,0.0,W,A*07
2020-05-22 14-00-40$GPVTG,009.3,T,009.3,M,0000.9,N,00001.7,K,A*1C
2020-05-22 14-00-40$GPGSA,A,3,2,6,15,23,26,31,,,,,,,0.0,0.0,0.0*35
2020-05-22 14-00-40$GPZDA,061210.05,22,05,2020,0,0*62
2020-05-22 14-00-40$GPGSV,2,1,6,2,55,318,048,6,13,281,016,15,83,158,029,23,45,172,009*45
2020-05-22 14-00-40$GPGSV,2,2,6,26,65,356,062,31,62,097,009*4D
2020-05-22 14-00-40$GPRMC,061210.93,A,0129.13574,N,00049.65232,E,0005.0,030.0,220520,0.0,W,A*1B
2020-05-22 14-00-40$GPVTG,030.0,T,030.0,M,0005.0,N,00009.3,K,A*1C
2020-05-22 14-00-40$GPZDA,061210.94,22,05,2020,0,0*6A
2020-05-22 14-00-40!AIVDM,1,1,,A,1<5UJi@P099EGnCf?h;PG@C?250l,0*1D
2020-05-22 14-00-41$VDVBW,00.0,00.0,A,00.0,00.0,A,00.0,A,00.0,A*51
2020-05-22 14-00-41$VDVBW,04.0,02.0,A,02.0,00.0,A,02.0,A,02.0,A*55
2020-05-22 14-00-41$VWVHW,30.0,T,30.0,M,00.0,N,00.0,K*54
2020-05-22 14-00-41$VWVHW,30.0,T,30.0,M,04.0,N,07.4,K*53
2020-05-22 14-00-41$SDDBK,00.0,f,00.0,M,00.0,F*29
2020-05-22 14-00-41$WIMTW,20.2,C*0D
2020-05-22 14-00-41$VWVLW,0.000,N,0.000,N*4C
2020-05-22 14-00-41$VWVLW,62.484,N,61.484,N*4F
2020-05-22 14-00-41$WIMWD,007.9,T,007.9,M,007.8,N,004.0,M*51
2020-05-22 14-00-41$SDDBS,00.0,f,00.0,M,00.0,F*31
2020-05-22 14-00-41$SDDBT,00.0,f,00.0,M,00.0,F*36
2020-05-22 14-00-41$WIMWV,007.9,R,007.8,N,A*22
2020-05-22 14-00-41$WIVWR,022.1,L,007.8,N,004.0,M,014.5,K*43
2020-05-22 14-00-41$SDDPT,0.0,0.0,*7B
2020-05-22 14-00-41$WIMTW,20.0,C*0F
2020-05-22 14-00-41$WIVWT,022.1,L,007.8,N,004.0,M,014.5,K*45
2020-05-22 14-00-41$WIMWD,000.0,T,000.0,M,000.0,N,000.0,M*5A
2020-05-22 14-00-41$WIMWV,000.0,T,000.0,N,A*25
2020-05-22 14-00-41$WIVWR,030.0,L,000.0,N,000.0,M,000.0,K*4A
2020-05-22 14-00-41$WIVWT,030.0,L,000.0,N,000.0,M,000.0,K*4C
2020-05-22 14-00-41$HCHDG,30.0,01.2,E,00.0,W*60
2020-05-22 14-00-41$HEHDM,31.2,M*1F
2020-05-22 14-00-41$HEHDT,30.0,T*1C
2020-05-22 14-00-41$HETHS,30.0,A*1E
2020-05-22 14-00-41$TIROT,00.0,A*0B
2020-05-22 14-00-41$GPGGA,061211.10,0134.80688,S,04654.47607,E,1,6,0.0,4,M,50.0,M,0,0*55
2020-05-22 14-00-41$GPGLL,0134.80688,S,04654.47607,E,061211.84,A,A*74
2020-05-22 14-00-41$GPGSA,A,3,3,6,15,23,28,31,,,,,,,0.0,0.0,0.0*3A
2020-05-22 14-00-41$GPGSV,2,1,6,3,10,100,098,6,37,023,092,15,51,346,072,23,21,355,033*43
2020-05-22 14-00-41$GPGSV,2,2,6,28,67,101,010,31,9,233,091*74
2020-05-22 14-00-41$GPDTM,W84,,0,N,0,E,0,W84*71
2020-05-22 14-00-41$GPRMC,061211.08,A,0134.80688,S,04654.47607,E,0000.9,009.3,220520,0.0,W,A*0A
2020-05-22 14-00-41$GPGLL,0129.13694,N,00049.65301,E,061211.92,A,A*68
2020-05-22 14-00-41$GPVTG,009.3,T,009.3,M,0000.9,N,00001.7,K,A*1C
2020-05-22 14-00-41$GPGSA,A,3,2,6,15,23,26,31,,,,,,,0.0,0.0,0.0*35
2020-05-22 14-00-41$GPGSV,2,1,6,2,10,312,028,6,26,221,075,15,56,249,014,23,80,153,042*41
2020-05-22 14-00-41$GPZDA,061211.10,22,05,2020,0,0*67
2020-05-22 14-00-41$GPGSV,2,2,6,26,51,326,072,31,87,117,019*4F
2020-05-22 14-00-41$GPRMC,061211.92,A,0129.13694,N,00049.65301,E,0005.0,030.0,220520,0.0,W,A*17
2020-05-22 14-00-41$GPVTG,030.0,T,030.0,M,0005.0,N,00009.3,K,A*1C
2020-05-22 14-00-41$GPZDA,061211.94,22,05,2020,0,0*6B
2020-05-22 14-00-42$VDVBW,04.0,02.0,A,02.0,00.0,A,02.0,A,02.0,A*55
2020-05-22 14-00-42$VDVBW,00.0,00.0,A,00.0,00.0,A,00.0,A,00.0,A*51
2020-05-22 14-00-42$VWVHW,30.0,T,30.0,M,04.0,N,07.4,K*53
2020-05-22 14-00-42$VWVHW,30.0,T,30.0,M,00.0,N,00.0,K*54
2020-05-22 14-00-42$VWVLW,62.484,N,61.484,N*4F
2020-05-22 14-00-42$VWVLW,0.000,N,0.000,N*4C
2020-05-22 14-00-42$SDDBK,00.0,f,00.0,M,00.0,F*29
2020-05-22 14-00-42$SDDBS,00.0,f,00.0,M,00.0,F*31
2020-05-22 14-00-42$WIMTW,20.2,C*0D
2020-05-22 14-00-42$SDDBT,00.0,f,00.0,M,00.0,F*36
2020-05-22 14-00-42$WIMWD,008.2,T,008.2,M,008.2,N,004.2,M*56
2020-05-22 14-00-42$SDDPT,0.0,0.0,*7B
2020-05-22 14-00-42$WIMWV,008.2,R,008.2,N,A*23
2020-05-22 14-00-42$WIVWR,021.8,L,008.2,N,004.2,M,015.3,K*49
2020-05-22 14-00-42$WIVWT,021.8,L,008.2,N,004.2,M,015.3,K*4F
2020-05-22 14-00-42$WIMTW,20.0,C*0F
2020-05-22 14-00-42$WIMWD,000.0,T,000.0,M,000.0,N,000.0,M*5A
2020-05-22 14-00-42$WIMWV,000.0,T,000.0,N,A*25
2020-05-22 14-00-42$WIVWR,030.0,L,000.0,N,000.0,M,000.0,K*4A
2020-05-22 14-00-42$WIVWT,030.0,L,000.0,N,000.0,M,000.0,K*4C
2020-05-22 14-00-42$HCHDG,30.0,01.2,E,00.0,W*60
2020-05-22 14-00-42$HEHDM,31.2,M*1F
2020-05-22 14-00-42$HEHDT,30.0,T*1C
2020-05-22 14-00-42$HETHS,30.0,A*1E
2020-05-22 14-00-42$TIROT,00.0,A*0B
2020-05-22 14-00-42$GPGGA,061212.07,0134.80663,S,04654.47611,E,1,6,0.0,4,M,50.0,M,0,0*52
2020-05-22 14-00-42$GPGLL,0134.80663,S,04654.47611,E,061212.58,A,A*74
2020-05-22 14-00-42$GPGSA,A,3,3,6,15,23,28,31,,,,,,,0.0,0.0,0.0*3A
2020-05-22 14-00-42$GPGSV,2,1,6,3,46,124,066,6,11,011,018,15,77,070,090,23,53,201,060*4D
2020-05-22 14-00-42$GPGSV,2,2,6,28,78,353,042,31,29,194,001*4D
2020-05-22 14-00-42$GPDTM,W84,,0,N,0,E,0,W84*71
2020-05-22 14-00-42$GPGGA,061212.94,0129.13814,N,00049.65370,E,1,6,0.0,1398,M,50.0,M,,*76
2020-05-22 14-00-42$GPRMC,061212.06,A,0134.80663,S,04654.47611,E,0000.9,009.3,220520,0.0,W,A*05
2020-05-22 14-00-42$GPVTG,009.3,T,009.3,M,0000.9,N,00001.7,K,A*1C
2020-05-22 14-00-42$GPGLL,0129.13814,N,00049.65370,E,061212.92,A,A*6B
2020-05-22 14-00-42$GPZDA,061212.06,22,05,2020,0,0*63
2020-05-22 14-00-42$GPGSV,2,1,6,2,42,142,036,6,77,219,085,15,80,083,041,23,68,028,031*4E
2020-05-22 14-00-42$GPGSV,2,2,6,26,46,319,075,31,40,314,078*4F
2020-05-22 14-00-42$GPRMC,061212.92,A,0129.13814,N,00049.65370,E,0005.0,030.0,220520,0.0,W,A*14
2020-05-22 14-00-42$GPVTG,030.0,T,030.0,M,0005.0,N,00009.3,K,A*1C
2020-05-22 14-00-42$GPZDA,061212.94,22,05,2020,0,0*68
2020-05-22 14-00-42!AIVDM,1,1,,A,1<5UJi@P099EGnEf?h<hG@CC250l,0*58
2020-05-22 14-00-43$VDVBW,00.0,00.0,A,00.0,00.0,A,00.0,A,00.0,A*51
2020-05-22 14-00-43$VDVBW,04.0,02.0,A,02.0,00.0,A,02.0,A,02.0,A*55
2020-05-22 14-00-43$VWVHW,30.0,T,30.0,M,00.0,N,00.0,K*54
2020-05-22 14-00-43$VWVHW,30.0,T,30.0,M,04.0,N,07.4,K*53
2020-05-22 14-00-43$VWVLW,0.000,N,0.000,N*4C
2020-05-22 14-00-43$VWVLW,62.485,N,61.485,N*4F
2020-05-22 14-00-43$SDDBK,00.0,f,00.0,M,00.0,F*29
2020-05-22 14-00-43$SDDBS,00.0,f,00.0,M,00.0,F*31
2020-05-22 14-00-43$SDDBT,00.0,f,00.0,M,00.0,F*36
2020-05-22 14-00-43$SDDPT,0.0,0.0,*7B
2020-05-22 14-00-43$WIMTW,20.2,C*0D
2020-05-22 14-00-43$WIMWD,010.4,T,010.4,M,008.3,N,004.3,M*56
2020-05-22 14-00-43$WIMWV,010.4,R,008.3,N,A*2D
2020-05-22 14-00-43$WIVWR,019.6,L,008.3,N,004.3,M,015.3,K*4C
2020-05-22 14-00-43$WIVWT,019.6,L,008.3,N,004.3,M,015.3,K*4A
2020-05-22 14-00-43$WIMTW,20.0,C*0F
2020-05-22 14-00-43$WIMWD,000.0,T,000.0,M,000.0,N,000.0,M*5A
2020-05-22 14-00-43$WIMWV,000.0,T,000.0,N,A*25
2020-05-22 14-00-43$WIVWR,030.0,L,000.0,N,000.0,M,000.0,K*4A
2020-05-22 14-00-43$WIVWT,030.0,L,000.0,N,000.0,M,000.0,K*4C
2020-05-22 14-00-43$HCHDG,30.0,01.2,E,00.0,W*60
2020-05-22 14-00-43$HEHDM,31.2,M*1F
2020-05-22 14-00-43$HEHDT,30.0,T*1C
2020-05-22 14-00-43$HETHS,30.0,A*1E
2020-05-22 14-00-43$TIROT,00.0,A*0B
2020-05-22 14-00-43$GPGGA,061213.08,0134.80638,S,04654.47615,E,1,6,0.0,4,M,50.0,M,0,0*56
2020-05-22 14-00-43$GPGLL,0134.80638,S,04654.47615,E,061213.70,A,A*75
2020-05-22 14-00-43$GPGSA,A,3,3,6,15,23,28,31,,,,,,,0.0,0.0,0.0*3A
2020-05-22 14-00-43$GPGSV,2,1,6,3,2,011,093,6,78,011,016,15,86,284,083,23,78,334,017*7A
2020-05-22 14-00-43$GPGSV,2,2,6,28,47,285,062,31,48,276,046*42
2020-05-22 14-00-43$GPDTM,W84,,0,N,0,E,0,W84*71
2020-05-22 14-00-43$GPRMC,061213.07,A,0134.80638,S,04654.47615,E,0000.9,009.3,220520,0.0,W,A*0F
2020-05-22 14-00-43$GPGGA,061213.93,0129.13934,N,00049.65439,E,1,6,0.0,1398,M,50.0,M,,*79
2020-05-22 14-00-43$GPVTG,009.3,T,009.3,M,0000.9,N,00001.7,K,A*1C
2020-05-22 14-00-43$GPGLL,0129.13934,N,00049.65439,E,061213.92,A,A*63
2020-05-22 14-00-43$GPZDA,061213.08,22,05,2020,0,0*6C
2020-05-22 14-00-43$GPGSV,2,1,6,2,87,325,053,6,7,185,089,15,58,253,001,23,71,217,080*78
2020-05-22 14-00-43$GPGSV,2,2,6,26,18,080,024,31,16,252,066*4C
2020-05-22 14-00-43$GPRMC,061213.92,A,0129.13934,N,00049.65439,E,0005.0,030.0,220520,0.0,W,A*1C
2020-05-22 14-00-43$GPVTG,030.0,T,030.0,M,0005.0,N,00009.3,K,A*1C
2020-05-22 14-00-43$GPZDA,061213.93,22,05,2020,0,0*6E
2020-05-22 14-00-43!AIVDM,1,1,,A,1<5UJi@P099EGnGf?h=PG@CE250l,0*65
2020-05-22 14-00-44$VDVBW,04.0,02.0,A,02.0,00.0,A,02.0,A,02.0,A*55
2020-05-22 14-00-44$VDVBW,00.0,00.0,A,00.0,00.0,A,00.0,A,00.0,A*51
2020-05-22 14-00-44$VWVHW,30.0,T,30.0,M,04.0,N,07.4,K*53
2020-05-22 14-00-44$VWVHW,30.0,T,30.0,M,00.0,N,00.0,K*54
2020-05-22 14-00-44$VWVLW,0.000,N,0.000,N*4C
2020-05-22 14-00-44$VWVLW,62.486,N,61.486,N*4F
2020-05-22 14-00-44$SDDBK,00.0,f,00.0,M,00.0,F*29
2020-05-22 14-00-44$SDDBS,00.0,f,00.0,M,00.0,F*31
2020-05-22 14-00-44$SDDBT,00.0,f,00.0,M,00.0,F*36
2020-05-22 14-00-44$SDDPT,0.0,0.0,*7B
2020-05-22 14-00-44$WIMTW,20.2,C*0D
2020-05-22 14-00-44$WIMWD,010.1,T,010.1,M,008.2,N,004.2,M*56
2020-05-22 14-00-44$WIMWV,010.1,R,008.2,N,A*29
2020-05-22 14-00-44$WIVWR,019.9,L,008.2,N,004.2,M,015.1,K*41
2020-05-22 14-00-44$WIVWT,019.9,L,008.2,N,004.2,M,015.1,K*47
2020-05-22 14-00-44$WIMTW,20.0,C*0F
2020-05-22 14-00-44$WIMWD,000.0,T,000.0,M,000.0,N,000.0,M*5A
2020-05-22 14-00-44$WIMWV,000.0,T,000.0,N,A*25
2020-05-22 14-00-44$WIVWR,030.0,L,000.0,N,000.0,M,000.0,K*4A
2020-05-22 14-00-44$WIVWT,030.0,L,000.0,N,000.0,M,000.0,K*4C
2020-05-22 14-00-44$HCHDG,30.0,01.2,E,00.0,W*60
2020-05-22 14-00-44$HEHDM,31.2,M*1F
2020-05-22 14-00-44$HEHDT,30.0,T*1C
2020-05-22 14-00-44$HETHS,30.0,A*1E
2020-05-22 14-00-44$TIROT,00.0,A*0B
2020-05-22 14-00-44$GPGGA,061214.07,0134.80613,S,04654.47619,E,1,6,0.0,4,M,50.0,M,0,0*5B
2020-05-22 14-00-44$GPGLL,0134.80613,S,04654.47619,E,061214.44,A,A*70
2020-05-22 14-00-44$GPGSA,A,3,3,6,15,23,28,31,,,,,,,0.0,0.0,0.0*3A
2020-05-22 14-00-44$GPGSV,2,1,6,3,37,249,067,6,57,049,053,15,25,113,045,23,54,267,011*48
2020-05-22 14-00-44$GPGSV,2,2,6,28,42,027,058,31,40,000,076*4C
2020-05-22 14-00-44$GPDTM,W84,,0,N,0,E,0,W84*71
2020-05-22 14-00-44$GPGGA,061214.93,0129.14054,N,00049.65508,E,1,6,0.0,1398,M,50.0,M,,*75
2020-05-22 14-00-44$GPRMC,061214.04,A,0134.80613,S,04654.47619,E,0000.9,009.3,220520,0.0,W,A*0E
2020-05-22 14-00-44$GPGLL,0129.14054,N,00049.65508,E,061214.92,A,A*6F
2020-05-22 14-00-44$GPVTG,009.3,T,009.3,M,0000.9,N,00001.7,K,A*1C
2020-05-22 14-00-44$GPGSV,2,1,6,2,80,015,028,6,18,097,096,15,72,342,049,23,24,256,005*4C
2020-05-22 14-00-44$GPZDA,061214.06,22,05,2020,0,0*65
2020-05-22 14-00-44$GPGSV,2,2,6,26,1,028,074,31,44,101,005*74
2020-05-22 14-00-44$GPRMC,061214.92,A,0129.14054,N,00049.65508,E,0005.0,030.0,220520,0.0,W,A*10
2020-05-22 14-00-44$GPVTG,030.0,T,030.0,M,0005.0,N,00009.3,K,A*1C
2020-05-22 14-00-44$GPZDA,061214.93,22,05,2020,0,0*69
2020-05-22 14-00-44!AIVDM,1,1,,A,1<5UJi@P099EGnGf?h>0G@CG250l,0*04
2020-05-22 14-00-45$VDVBW,00.0,00.0,A,00.0,00.0,A,00.0,A,00.0,A*51
2020-05-22 14-00-45$VDVBW,04.0,02.0,A,02.0,00.0,A,02.0,A,02.0,A*55
2020-05-22 14-00-45$VWVHW,30.0,T,30.0,M,04.0,N,07.4,K*53
2020-05-22 14-00-45$VWVHW,30.0,T,30.0,M,00.0,N,00.0,K*54
2020-05-22 14-00-45$VWVLW,62.486,N,61.486,N*4F
2020-05-22 14-00-45$VWVLW,0.000,N,0.000,N*4C
2020-05-22 14-00-45$SDDBK,00.0,f,00.0,M,00.0,F*29
2020-05-22 14-00-45$SDDBS,00.0,f,00.0,M,00.0,F*31
2020-05-22 14-00-45$SDDBT,00.0,f,00.0,M,00.0,F*36
2020-05-22 14-00-45$SDDPT,0.0,0.0,*7B
2020-05-22 14-00-45$WIMTW,20.2,C*0D
2020-05-22 14-00-45$WIMWD,008.0,T,008.0,M,007.9,N,004.1,M*51
2020-05-22 14-00-45$WIMWV,008.0,R,007.9,N,A*25
2020-05-22 14-00-45$WIVWR,022.0,L,007.9,N,004.1,M,014.7,K*40
2020-05-22 14-00-45$WIVWT,022.0,L,007.9,N,004.1,M,014.7,K*46
2020-05-22 14-00-45$WIMTW,20.0,C*0F
2020-05-22 14-00-45$WIMWD,000.0,T,000.0,M,000.0,N,000.0,M*5A
2020-05-22 14-00-45$WIMWV,000.0,T,000.0,N,A*25
2020-05-22 14-00-45$WIVWR,030.0,L,000.0,N,000.0,M,000.0,K*4A
2020-05-22 14-00-45$WIVWT,030.0,L,000.0,N,000.0,M,000.0,K*4C
2020-05-22 14-00-45$HCHDG,30.0,01.2,E,00.0,W*60
2020-05-22 14-00-45$HEHDM,31.2,M*1F
2020-05-22 14-00-45$HEHDT,30.0,T*1C
2020-05-22 14-00-45$HETHS,30.0,A*1E
2020-05-22 14-00-45$TIROT,00.0,A*0B
2020-05-22 14-00-45$GPGGA,061215.08,0134.80588,S,04654.47623,E,1,6,0.0,4,M,50.0,M,0,0*5D
2020-05-22 14-00-45$GPGLL,0134.80588,S,04654.47623,E,061215.64,A,A*7B
2020-05-22 14-00-45$GPGSA,A,3,3,6,15,23,28,31,,,,,,,0.0,0.0,0.0*3A
2020-05-22 14-00-45$GPGSV,2,1,6,3,39,278,042,6,79,246,029,15,20,146,038,23,37,128,083*46
2020-05-22 14-00-45$GPGSV,2,2,6,28,12,119,053,31,34,151,011*49
2020-05-22 14-00-45$GPDTM,W84,,0,N,0,E,0,W84*71
2020-05-22 14-00-45$GPRMC,061215.06,A,0134.80588,S,04654.47623,E,0000.9,009.3,220520,0.0,W,A*05
2020-05-22 14-00-45$GPGGA,061215.94,0129.14174,N,00049.65577,E,1,6,0.0,1398,M,50.0,M,,*78
2020-05-22 14-00-45$GPVTG,009.3,T,009.3,M,0000.9,N,00001.7,K,A*1C
2020-05-22 14-00-45$GPGLL,0129.14174,N,00049.65577,E,061215.92,A,A*65
2020-05-22 14-00-45$GPZDA,061215.07,22,05,2020,0,0*65
2020-05-22 14-00-45$GPGSV,2,1,6,2,7,317,072,6,41,162,050,15,51,308,089,23,35,076,040*72
2020-05-22 14-00-45$GPGSV,2,2,6,26,8,205,025,31,86,078,019*78
2020-05-22 14-00-45$GPRMC,061215.92,A,0129.14174,N,00049.65577,E,0005.0,030.0,220520,0.0,W,A*1A
2020-05-22 14-00-45$GPVTG,030.0,T,030.0,M,0005.0,N,00009.3,K,A*1C
2020-05-22 14-00-45$GPZDA,061215.94,22,05,2020,0,0*6F
2020-05-22 14-00-45!AIVDM,1,1,,A,1<5UJi@P099EGnIf?h>hG@CI250l,0*5C
2020-05-22 14-00-46$VDVBW,04.0,02.0,A,02.0,00.0,A,02.0,A,02.0,A*55
2020-05-22 14-00-46$VDVBW,00.0,00.0,A,00.0,00.0,A,00.0,A,00.0,A*51
2020-05-22 14-00-46$VWVHW,30.0,T,30.0,M,04.0,N,07.4,K*53
2020-05-22 14-00-46$VWVHW,30.0,T,30.0,M,00.0,N,00.0,K*54
2020-05-22 14-00-46$VWVLW,62.486,N,61.486,N*4F
2020-05-22 14-00-46$VWVLW,0.000,N,0.000,N*4C
2020-05-22 14-00-46$SDDBK,00.0,f,00.0,M,00.0,F*29
2020-05-22 14-00-46$SDDBS,00.0,f,00.0,M,00.0,F*31
2020-05-22 14-00-46$SDDBT,00.0,f,00.0,M,00.0,F*36
2020-05-22 14-00-46$SDDPT,0.0,0.0,*7B
2020-05-22 14-00-46$WIMTW,20.2,C*0D
2020-05-22 14-00-46$WIMWD,005.6,T,005.6,M,008.1,N,004.1,M*56
2020-05-22 14-00-46$WIMWV,005.6,R,008.1,N,A*29
2020-05-22 14-00-46$WIVWR,024.4,L,008.1,N,004.1,M,014.9,K*4B
2020-05-22 14-00-46$WIVWT,024.4,L,008.1,N,004.1,M,014.9,K*4D
2020-05-22 14-00-46$WIMTW,20.0,C*0F
2020-05-22 14-00-46$WIMWD,000.0,T,000.0,M,000.0,N,000.0,M*5A
2020-05-22 14-00-46$WIMWV,000.0,T,000.0,N,A*25
2020-05-22 14-00-46$WIVWR,030.0,L,000.0,N,000.0,M,000.0,K*4A
2020-05-22 14-00-46$WIVWT,030.0,L,000.0,N,000.0,M,000.0,K*4C
2020-05-22 14-00-46$HCHDG,30.0,01.2,E,00.0,W*60
2020-05-22 14-00-46$HEHDM,31.2,M*1F
2020-05-22 14-00-46$HEHDT,30.0,T*1C
2020-05-22 14-00-46$HETHS,30.0,A*1E
2020-05-22 14-00-46$TIROT,00.0,A*0B
2020-05-22 14-00-46$GPGGA,061216.05,0134.80563,S,04654.47627,E,1,6,0.0,4,M,50.0,M,0,0*52
2020-05-22 14-00-46$GPGLL,0134.80563,S,04654.47627,E,061216.43,A,A*7C
2020-05-22 14-00-46$GPGSA,A,3,3,6,15,23,28,31,,,,,,,0.0,0.0,0.0*3A
2020-05-22 14-00-46$GPGSV,2,1,6,3,79,212,022,6,28,108,013,15,17,212,078,23,35,067,094*40
2020-05-22 14-00-46$GPGSV,2,2,6,28,10,326,092,31,36,176,090*46
2020-05-22 14-00-46$GPDTM,W84,,0,N,0,E,0,W84*71
2020-05-22 14-00-46$GPRMC,061216.04,A,0134.80563,S,04654.47627,E,0000.9,009.3,220520,0.0,W,A*05
2020-05-22 14-00-46$GPGGA,061216.94,0129.14294,N,00049.65646,E,1,6,0.0,1398,M,50.0,M,,*77
2020-05-22 14-00-46$GPGLL,0129.14294,N,00049.65646,E,061216.93,A,A*6B
2020-05-22 14-00-46$GPVTG,009.3,T,009.3,M,0000.9,N,00001.7,K,A*1C
2020-05-22 14-00-46$GPGSV,2,1,6,2,62,155,036,6,87,132,061,15,41,077,064,23,10,141,056*44
2020-05-22 14-00-46$GPZDA,061216.05,22,05,2020,0,0*64
2020-05-22 14-00-46$GPGSV,2,2,6,26,20,015,073,31,26,056,069*43
2020-05-22 14-00-46$GPRMC,061216.93,A,0129.14294,N,00049.65646,E,0005.0,030.0,220520,0.0,W,A*14
2020-05-22 14-00-46$GPVTG,030.0,T,030.0,M,0005.0,N,00009.3,K,A*1C
2020-05-22 14-00-46$GPZDA,061216.94,22,05,2020,0,0*6C
2020-05-22 14-00-46!AIVDM,1,1,,A,1<5UJi@P099EGnIf?h?@G@CK250l,0*77
2020-05-22 14-00-47$VDVBW,00.0,00.0,A,00.0,00.0,A,00.0,A,00.0,A*51
2020-05-22 14-00-47$VDVBW,04.0,02.0,A,02.0,00.0,A,02.0,A,02.0,A*55
2020-05-22 14-00-47$VWVHW,30.0,T,30.0,M,00.0,N,00.0,K*54
2020-05-22 14-00-47$VWVHW,30.0,T,30.0,M,04.0,N,07.4,K*53
2020-05-22 14-00-47$VWVLW,0.000,N,0.000,N*4C
2020-05-22 14-00-47$VWVLW,62.487,N,61.487,N*4F
2020-05-22 14-00-47$SDDBK,00.0,f,00.0,M,00.0,F*29
2020-05-22 14-00-47$SDDBS,00.0,f,00.0,M,00.0,F*31
2020-05-22 14-00-47$SDDBT,00.0,f,00.0,M,00.0,F*36
2020-05-22 14-00-47$SDDPT,0.0,0.0,*7B
2020-05-22 14-00-47$WIMTW,20.2,C*0D
2020-05-22 14-00-47$WIMWD,009.8,T,009.8,M,008.1,N,004.2,M*55
2020-05-22 14-00-47$WIMWV,009.8,R,008.1,N,A*2B
2020-05-22 14-00-47$WIVWR,020.2,L,008.1,N,004.2,M,015.0,K*42
2020-05-22 14-00-47$WIVWT,020.2,L,008.1,N,004.2,M,015.0,K*44
2020-05-22 14-00-47$WIMTW,20.0,C*0F
2020-05-22 14-00-47$WIMWD,000.0,T,000.0,M,000.0,N,000.0,M*5A
2020-05-22 14-00-47$WIMWV,000.0,T,000.0,N,A*25
2020-05-22 14-00-47$WIVWR,030.0,L,000.0,N,000.0,M,000.0,K*4A
2020-05-22 14-00-47$HCHDG,30.0,01.2,E,00.0,W*60
2020-05-22 14-00-47$WIVWT,030.0,L,000.0,N,000.0,M,000.0,K*4C
2020-05-22 14-00-47$HEHDM,31.2,M*1F
2020-05-22 14-00-47$HEHDT,30.0,T*1C
2020-05-22 14-00-47$HETHS,30.0,A*1E
2020-05-22 14-00-47$TIROT,00.0,A*0B
2020-05-22 14-00-47$GPGGA,061217.08,0134.80538,S,04654.47631,E,1,6,0.0,4,M,50.0,M,0,0*57
2020-05-22 14-00-47$GPGLL,0134.80538,S,04654.47631,E,061217.71,A,A*75
2020-05-22 14-00-47$GPGSA,A,3,3,6,15,23,28,31,,,,,,,0.0,0.0,0.0*3A
2020-05-22 14-00-47$GPGSV,2,1,6,3,26,303,093,6,82,062,018,15,51,198,007,23,55,294,033*49
2020-05-22 14-00-47$GPGSV,2,2,6,28,42,182,009,31,23,291,093*42
2020-05-22 14-00-47$GPDTM,W84,,0,N,0,E,0,W84*71
2020-05-22 14-00-47$GPRMC,061217.07,A,0134.80538,S,04654.47631,E,0000.9,009.3,220520,0.0,W,A*0E
2020-05-22 14-00-47$GPGGA,061217.93,0129.14414,N,00049.65715,E,1,6,0.0,1398,M,50.0,M,,*78
2020-05-22 14-00-47$GPVTG,009.3,T,009.3,M,0000.9,N,00001.7,K,A*1C
2020-05-22 14-00-47$GPGLL,0129.14414,N,00049.65715,E,061217.92,A,A*62
2020-05-22 14-00-47$GPZDA,061217.08,22,05,2020,0,0*68
2020-05-22 14-00-47$GPGSA,A,3,2,6,15,23,26,31,,,,,,,0.0,0.0,0.0*35
2020-05-22 14-00-47$GPGSV,2,2,6,26,45,302,011,31,27,125,092*41
2020-05-22 14-00-47$GPRMC,061217.92,A,0129.14414,N,00049.65715,E,0005.0,030.0,220520,0.0,W,A*1D
2020-05-22 14-00-47$GPVTG,030.0,T,030.0,M,0005.0,N,00009.3,K,A*1C
2020-05-22 14-00-47$GPZDA,061217.93,22,05,2020,0,0*6A
2020-05-22 14-00-47!AIVDM,1,1,,A,1<5UJi@P099EGnKf?h@0G@CM250l,0*7C
2020-05-22 14-00-48$VDVBW,04.0,02.0,A,02.0,00.0,A,02.0,A,02.0,A*55
2020-05-22 14-00-48$VDVBW,00.0,00.0,A,00.0,00.0,A,00.0,A,00.0,A*51
2020-05-22 14-00-48$VWVHW,30.0,T,30.0,M,04.0,N,07.4,K*53
2020-05-22 14-00-48$VWVHW,30.0,T,30.0,M,00.0,N,00.0,K*54
2020-05-22 14-00-48$VWVLW,0.000,N,0.000,N*4C
2020-05-22 14-00-48$VWVLW,62.487,N,61.487,N*4F
2020-05-22 14-00-48$SDDBK,00.0,f,00.0,M,00.0,F*29
2020-05-22 14-00-48$SDDBS,00.0,f,00.0,M,00.0,F*31
2020-05-22 14-00-48$SDDBT,00.0,f,00.0,M,00.0,F*36
2020-05-22 14-00-48$SDDPT,0.0,0.0,*7B
2020-05-22 14-00-48$WIMTW,20.2,C*0D
2020-05-22 14-00-48$WIMWD,009.0,T,009.0,M,007.9,N,004.1,M*51
2020-05-22 14-00-48$WIMWV,009.0,R,007.9,N,A*24
2020-05-22 14-00-48$WIVWR,021.0,L,007.9,N,004.1,M,014.6,K*42
2020-05-22 14-00-48$WIVWT,021.0,L,007.9,N,004.1,M,014.6,K*44
2020-05-22 14-00-48$WIMTW,20.0,C*0F
2020-05-22 14-00-48$WIMWD,000.0,T,000.0,M,000.0,N,000.0,M*5A
2020-05-22 14-00-48$WIMWV,000.0,T,000.0,N,A*25
2020-05-22 14-00-48$WIVWR,030.0,L,000.0,N,000.0,M,000.0,K*4A
2020-05-22 14-00-48$HCHDG,30.0,01.2,E,00.0,W*60
2020-05-22 14-00-48$HEHDM,31.2,M*1F
2020-05-22 14-00-48$HEHDT,30.0,T*1C
2020-05-22 14-00-48$WIVWT,030.0,L,000.0,N,000.0,M,000.0,K*4C
2020-05-22 14-00-48$HETHS,30.0,A*1E
2020-05-22 14-00-48$TIROT,00.0,A*0B
2020-05-22 14-00-48$GPGGA,061218.05,0134.80513,S,04654.47635,E,1,6,0.0,4,M,50.0,M,0,0*58
2020-05-22 14-00-48$GPGLL,0134.80513,S,04654.47635,E,061218.33,A,A*71
2020-05-22 14-00-48$GPGSA,A,3,3,6,15,23,28,31,,,,,,,0.0,0.0,0.0*3A
2020-05-22 14-00-48$GPGSV,2,1,6,3,45,187,013,6,17,068,045,15,32,105,021,23,44,268,026*46
2020-05-22 14-00-48$GPGSV,2,2,6,28,33,019,085,31,49,287,034*45
2020-05-22 14-00-48$GPDTM,W84,,0,N,0,E,0,W84*71
2020-05-22 14-00-48$GPGGA,061218.94,0129.14534,N,00049.65784,E,1,6,0.0,1398,M,50.0,M,,*7B
2020-05-22 14-00-48$GPRMC,061218.03,A,0134.80513,S,04654.47635,E,0000.9,009.3,220520,0.0,W,A*08
2020-05-22 14-00-48$GPGLL,0129.14534,N,00049.65784,E,061218.93,A,A*67
2020-05-22 14-00-48$GPVTG,009.3,T,009.3,M,0000.9,N,00001.7,K,A*1C
2020-05-22 14-00-48$GPGSA,A,3,2,6,15,23,26,31,,,,,,,0.0,0.0,0.0*35
2020-05-22 14-00-48$GPZDA,061218.05,22,05,2020,0,0*6A
2020-05-22 14-00-48$GPGSV,2,2,6,26,80,084,020,31,79,130,035*45
2020-05-22 14-00-48$GPRMC,061218.93,A,0129.14534,N,00049.65784,E,0005.0,030.0,220520,0.0,W,A*18
2020-05-22 14-00-48$GPVTG,030.0,T,030.0,M,0005.0,N,00009.3,K,A*1C
2020-05-22 14-00-48$GPZDA,061218.94,22,05,2020,0,0*62
2020-05-22 14-00-49$VDVBW,00.0,00.0,A,00.0,00.0,A,00.0,A,00.0,A*51
2020-05-22 14-00-49$VDVBW,04.0,02.0,A,02.0,00.0,A,02.0,A,02.0,A*55
2020-05-22 14-00-49$VWVHW,30.0,T,30.0,M,00.0,N,00.0,K*54
2020-05-22 14-00-49$VWVHW,30.0,T,30.0,M,04.0,N,07.4,K*53
2020-05-22 14-00-49$VWVLW,0.000,N,0.000,N*4C
2020-05-22 14-00-49$VWVLW,62.489,N,61.489,N*4F
2020-05-22 14-00-49$SDDBK,00.0,f,00.0,M,00.0,F*29
2020-05-22 14-00-49$SDDBS,00.0,f,00.0,M,00.0,F*31
2020-05-22 14-00-49$SDDBT,00.0,f,00.0,M,00.0,F*36
2020-05-22 14-00-49$SDDPT,0.0,0.0,*7B
2020-05-22 14-00-49$WIMTW,20.2,C*0D
2020-05-22 14-00-49$WIMWD,004.8,T,004.8,M,007.7,N,004.0,M*5E
2020-05-22 14-00-49$WIMWV,004.8,R,007.7,N,A*2F
2020-05-22 14-00-49$WIVWR,025.2,L,007.7,N,004.0,M,014.3,K*4E
2020-05-22 14-00-49$WIVWT,025.2,L,007.7,N,004.0,M,014.3,K*48
2020-05-22 14-00-49$WIMTW,20.0,C*0F
2020-05-22 14-00-49$WIMWD,000.0,T,000.0,M,000.0,N,000.0,M*5A
2020-05-22 14-00-49$HCHDG,30.0,01.2,E,00.0,W*60
2020-05-22 14-00-49$WIMWV,000.0,T,000.0,N,A*25
2020-05-22 14-00-49$HEHDM,31.2,M*1F
2020-05-22 14-00-49$WIVWR,030.0,L,000.0,N,000.0,M,000.0,K*4A
2020-05-22 14-00-49$HEHDT,30.0,T*1C
2020-05-22 14-00-49$WIVWT,030.0,L,000.0,N,000.0,M,000.0,K*4C
2020-05-22 14-00-49$HETHS,30.0,A*1E
2020-05-22 14-00-49$TIROT,00.0,A*0B
2020-05-22 14-00-49$GPGGA,061219.05,0134.80488,S,04654.47639,E,1,6,0.0,4,M,50.0,M,0,0*56
2020-05-22 14-00-49$GPGLL,0134.80488,S,04654.47639,E,061219.37,A,A*7B
2020-05-22 14-00-49$GPGSA,A,3,3,6,15,23,28,31,,,,,,,0.0,0.0,0.0*3A
2020-05-22 14-00-49$GPGSV,2,1,6,3,31,044,036,6,18,203,033,15,67,039,072,23,64,140,019*42
2020-05-22 14-00-49$GPGSV,2,2,6,28,23,140,028,31,58,218,077*4F
2020-05-22 14-00-49$GPDTM,W84,,0,N,0,E,0,W84*71
2020-05-22 14-00-49$GPRMC,061219.04,A,0134.80488,S,04654.47639,E,0000.9,009.3,220520,0.0,W,A*01
2020-05-22 14-00-49$GPGGA,061219.94,0129.14654,N,00049.65853,E,1,6,0.0,1398,M,50.0,M,,*7A
2020-05-22 14-00-49$GPVTG,009.3,T,009.3,M,0000.9,N,00001.7,K,A*1C
2020-05-22 14-00-49$GPGLL,0129.14654,N,00049.65853,E,061219.92,A,A*67
2020-05-22 14-00-49$GPGSA,A,3,2,6,15,23,26,31,,,,,,,0.0,0.0,0.0*35
2020-05-22 14-00-49$GPZDA,061219.04,22,05,2020,0,0*6A
2020-05-22 14-00-49$GPGSV,2,2,6,26,22,008,038,31,28,176,062*44
2020-05-22 14-00-49$GPRMC,061219.92,A,0129.14654,N,00049.65853,E,0005.0,030.0,220520,0.0,W,A*18
2020-05-22 14-00-49$GPVTG,030.0,T,030.0,M,0005.0,N,00009.3,K,A*1C
2020-05-22 14-00-49$GPZDA,061219.94,22,05,2020,0,0*63
2020-05-22 14-00-49!AIVDM,1,1,,A,1<5UJi@P099EGnMf?hA@G@CQ250l,0*17
2020-05-22 14-00-49!AIVDM,1,1,,A,1<5UJi@P099EGnMf?hAhG@CS250l,0*3D
2020-05-22 14-00-50$VDVBW,04.0,02.0,A,02.0,00.0,A,02.0,A,02.0,A*55
2020-05-22 14-00-50$VDVBW,00.0,00.0,A,00.0,00.0,A,00.0,A,00.0,A*51
2020-05-22 14-00-50$VWVHW,30.0,T,30.0,M,04.0,N,07.4,K*53
2020-05-22 14-00-50$VWVHW,30.0,T,30.0,M,00.0,N,00.0,K*54
2020-05-22 14-00-50$VWVLW,62.489,N,61.489,N*4F
2020-05-22 14-00-50$VWVLW,0.000,N,0.000,N*4C
2020-05-22 14-00-50$SDDBK,00.0,f,00.0,M,00.0,F*29
2020-05-22 14-00-50$SDDBS,00.0,f,00.0,M,00.0,F*31
2020-05-22 14-00-50$SDDBT,00.0,f,00.0,M,00.0,F*36
2020-05-22 14-00-50$SDDPT,0.0,0.0,*7B
2020-05-22 14-00-50$WIMTW,20.2,C*0D
2020-05-22 14-00-50$WIMWD,007.0,T,007.0,M,008.3,N,004.3,M*56
2020-05-22 14-00-50$WIMWV,007.0,R,008.3,N,A*2F
2020-05-22 14-00-50$WIVWR,023.0,L,008.3,N,004.3,M,015.4,K*44
2020-05-22 14-00-50$WIVWT,023.0,L,008.3,N,004.3,M,015.4,K*42
2020-05-22 14-00-50$WIMTW,20.0,C*0F
2020-05-22 14-00-50$WIMWD,000.0,T,000.0,M,000.0,N,000.0,M*5A
2020-05-22 14-00-50$HCHDG,30.0,01.2,E,00.0,W*60
2020-05-22 14-00-50$HEHDM,31.2,M*1F
2020-05-22 14-00-50$WIMWV,000.0,T,000.0,N,A*25
2020-05-22 14-00-50$HEHDT,30.0,T*1C
2020-05-22 14-00-50$WIVWR,030.0,L,000.0,N,000.0,M,000.0,K*4A
2020-05-22 14-00-50$HETHS,30.0,A*1E
2020-05-22 14-00-50$WIVWT,030.0,L,000.0,N,000.0,M,000.0,K*4C
2020-05-22 14-00-50$TIROT,00.0,A*0B
2020-05-22 14-00-50$GPGGA,061220.09,0134.80463,S,04654.47643,E,1,6,0.0,4,M,50.0,M,0,0*58
2020-05-22 14-00-50$GPGLL,0134.80463,S,04654.47643,E,061220.86,A,A*73
2020-05-22 14-00-50$GPGSA,A,3,3,6,15,23,28,31,,,,,,,0.0,0.0,0.0*3A
2020-05-22 14-00-50$GPGSV,2,1,6,3,38,045,033,6,62,309,061,15,40,313,003,23,10,250,066*4F
2020-05-22 14-00-50$GPGSV,2,2,6,28,25,257,080,31,36,116,016*4C
2020-05-22 14-00-50$GPDTM,W84,,0,N,0,E,0,W84*71
2020-05-22 14-00-50$GPRMC,061220.08,A,0134.80463,S,04654.47643,E,0000.9,009.3,220520,0.0,W,A*0F
2020-05-22 14-00-50$GPGGA,061220.93,0129.14774,N,00049.65922,E,1,6,0.0,1398,M,50.0,M,,*73
2020-05-22 14-00-50$GPVTG,009.3,T,009.3,M,0000.9,N,00001.7,K,A*1C
2020-05-22 14-00-50$GPGLL,0129.14774,N,00049.65922,E,061220.92,A,A*69
2020-05-22 14-00-50$GPZDA,061220.09,22,05,2020,0,0*6D
2020-05-22 14-00-50$GPGSA,A,3,2,6,15,23,26,31,,,,,,,0.0,0.0,0.0*35
2020-05-22 14-00-50$GPGSV,2,1,6,2,76,297,057,6,56,174,070,15,19,187,050,23,2,170,007*74
2020-05-22 14-00-50$GPRMC,061220.92,A,0129.14774,N,00049.65922,E,0005.0,030.0,220520,0.0,W,A*16
2020-05-22 14-00-50$GPVTG,030.0,T,030.0,M,0005.0,N,00009.3,K,A*1C
2020-05-22 14-00-50$GPZDA,061220.93,22,05,2020,0,0*6E
2020-05-22 14-00-50!AIVDM,1,1,,A,1<5UJi@P099EGnOf?hBPG@CU250l,0*02
2020-05-22 14-00-51$VDVBW,04.0,02.0,A,02.0,00.0,A,02.0,A,02.0,A*55
2020-05-22 14-00-51$VDVBW,00.0,00.0,A,00.0,00.0,A,00.0,A,00.0,A*51
2020-05-22 14-00-51$VWVHW,30.0,T,30.0,M,04.0,N,07.4,K*53
2020-05-22 14-00-51$VWVHW,30.0,T,30.0,M,00.0,N,00.0,K*54
2020-05-22 14-00-51$VWVLW,62.489,N,61.489,N*4F
2020-05-22 14-00-51$VWVLW,0.000,N,0.000,N*4C
2020-05-22 14-00-51$SDDBK,00.0,f,00.0,M,00.0,F*29
2020-05-22 14-00-51$SDDBS,00.0,f,00.0,M,00.0,F*31
2020-05-22 14-00-51$SDDBT,00.0,f,00.0,M,00.0,F*36
2020-05-22 14-00-51$SDDPT,0.0,0.0,*7B
2020-05-22 14-00-51$WIMTW,20.2,C*0D
2020-05-22 14-00-51$WIMWD,006.9,T,006.9,M,007.7,N,004.0,M*5E
2020-05-22 14-00-51$WIMWV,006.9,R,007.7,N,A*2C
2020-05-22 14-00-51$WIVWR,023.1,L,007.7,N,004.0,M,014.2,K*4A
2020-05-22 14-00-51$WIVWT,023.1,L,007.7,N,004.0,M,014.2,K*4C
2020-05-22 14-00-51$WIMTW,20.0,C*0F
2020-05-22 14-00-51$WIMWD,000.0,T,000.0,M,000.0,N,000.0,M*5A
2020-05-22 14-00-51$HCHDG,30.0,01.2,E,00.0,W*60
2020-05-22 14-00-51$WIMWV,000.0,T,000.0,N,A*25
2020-05-22 14-00-51$HEHDM,31.2,M*1F
2020-05-22 14-00-51$WIVWR,030.0,L,000.0,N,000.0,M,000.0,K*4A
2020-05-22 14-00-51$HEHDT,30.0,T*1C
2020-05-22 14-00-51$WIVWT,030.0,L,000.0,N,000.0,M,000.0,K*4C
2020-05-22 14-00-51$HETHS,30.0,A*1E
2020-05-22 14-00-51$TIROT,00.0,A*0B
2020-05-22 14-00-51$GPGGA,061221.08,0134.80438,S,04654.47647,E,1,6,0.0,4,M,50.0,M,0,0*52
2020-05-22 14-00-51$GPGLL,0134.80438,S,04654.47647,E,061221.68,A,A*78
2020-05-22 14-00-51$GPGSA,A,3,3,6,15,23,28,31,,,,,,,0.0,0.0,0.0*3A
2020-05-22 14-00-51$GPGSV,2,1,6,3,79,037,029,6,1,128,036,15,69,060,080,23,62,055,083*7C
2020-05-22 14-00-51$GPGSV,2,2,6,28,67,238,088,31,71,174,041*4E
2020-05-22 14-00-51$GPGGA,061221.94,0129.14894,N,00049.65991,E,1,6,0.0,1398,M,50.0,M,,*7C
2020-05-22 14-00-51$GPRMC,061221.07,A,0134.80438,S,04654.47647,E,0000.9,009.3,220520,0.0,W,A*0B
2020-05-22 14-00-51$GPGLL,0129.14894,N,00049.65991,E,061221.92,A,A*61
2020-05-22 14-00-51$GPGSA,A,3,2,6,15,23,26,31,,,,,,,0.0,0.0,0.0*35
2020-05-22 14-00-51$GPVTG,009.3,T,009.3,M,0000.9,N,00001.7,K,A*1C
2020-05-22 14-00-51$GPZDA,061221.08,22,05,2020,0,0*6D
2020-05-22 14-00-51$GPGSV,2,1,6,2,71,315,068,6,11,343,007,15,35,247,035,23,13,252,076*46
2020-05-22 14-00-51$GPGSV,2,2,6,26,43,177,054,31,88,195,054*42
2020-05-22 14-00-51$GPRMC,061221.92,A,0129.14894,N,00049.65991,E,0005.0,030.0,220520,0.0,W,A*1E
2020-05-22 14-00-51$GPVTG,030.0,T,030.0,M,0005.0,N,00009.3,K,A*1C
2020-05-22 14-00-51$GPZDA,061221.93,22,05,2020,0,0*6F
2020-05-22 14-00-51!AIVDM,1,1,,A,1<5UJi@P099EGnOf?hC0G@CW250l,0*61
2020-05-22 14-00-52$VDVBW,00.0,00.0,A,00.0,00.0,A,00.0,A,00.0,A*51
2020-05-22 14-00-52$VDVBW,04.0,02.0,A,02.0,00.0,A,02.0,A,02.0,A*55
2020-05-22 14-00-52$VWVHW,30.0,T,30.0,M,04.0,N,07.4,K*53
2020-05-22 14-00-52$VWVHW,30.0,T,30.0,M,00.0,N,00.0,K*54
2020-05-22 14-00-52$VWVLW,62.490,N,61.490,N*4F
2020-05-22 14-00-52$VWVLW,0.000,N,0.000,N*4C
2020-05-22 14-00-52$SDDBK,00.0,f,00.0,M,00.0,F*29
2020-05-22 14-00-52$SDDBS,00.0,f,00.0,M,00.0,F*31
2020-05-22 14-00-52$SDDBT,00.0,f,00.0,M,00.0,F*36
2020-05-22 14-00-52$SDDPT,0.0,0.0,*7B
2020-05-22 14-00-52$WIMTW,20.2,C*0D
2020-05-22 14-00-52$WIMWD,005.2,T,005.2,M,008.3,N,004.3,M*56
2020-05-22 14-00-52$WIMWV,005.2,R,008.3,N,A*2F
2020-05-22 14-00-52$WIVWR,024.8,L,008.3,N,004.3,M,015.4,K*4B
2020-05-22 14-00-52$WIVWT,024.8,L,008.3,N,004.3,M,015.4,K*4D
2020-05-22 14-00-52$WIMTW,20.0,C*0F
2020-05-22 14-00-52$HCHDG,30.0,01.2,E,00.0,W*60
2020-05-22 14-00-52$WIMWD,000.0,T,000.0,M,000.0,N,000.0,M*5A
2020-05-22 14-00-52$HEHDM,31.2,M*1F
2020-05-22 14-00-52$WIMWV,000.0,T,000.0,N,A*25
2020-05-22 14-00-52$HEHDT,30.0,T*1C
2020-05-22 14-00-52$HETHS,30.0,A*1E
2020-05-22 14-00-52$WIVWR,030.0,L,000.0,N,000.0,M,000.0,K*4A
2020-05-22 14-00-52$TIROT,00.0,A*0B
2020-05-22 14-00-52$WIVWT,030.0,L,000.0,N,000.0,M,000.0,K*4C
2020-05-22 14-00-52$GPGGA,061223.05,0134.80388,S,04654.47655,E,1,6,0.0,4,M,50.0,M,0,0*52
2020-05-22 14-00-52$GPGLL,0134.80388,S,04654.47655,E,061223.37,A,A*7F
2020-05-22 14-00-52$GPGSA,A,3,3,6,15,23,28,31,,,,,,,0.0,0.0,0.0*3A
2020-05-22 14-00-52$GPGSV,2,1,6,3,38,026,025,6,14,085,097,15,14,003,084,23,33,289,097*45
2020-05-22 14-00-52$GPGSV,2,2,6,28,74,130,057,31,9,107,082*71
2020-05-22 14-00-52$GPGGA,061222.93,0129.15014,N,00049.66060,E,1,6,0.0,1398,M,50.0,M,,*7D
2020-05-22 14-00-52$GPGLL,0129.15014,N,00049.66060,E,061222.92,A,A*67
2020-05-22 14-00-52$GPRMC,061223.04,A,0134.80388,S,04654.47655,E,0000.9,009.3,220520,0.0,W,A*05
2020-05-22 14-00-52$GPGSA,A,3,2,6,15,23,26,31,,,,,,,0.0,0.0,0.0*35
2020-05-22 14-00-52$GPVTG,009.3,T,009.3,M,0000.9,N,00001.7,K,A*1C
2020-05-22 14-00-52$GPGSV,2,1,6,2,20,100,061,6,23,323,017,15,35,055,024,23,78,200,052*46
2020-05-22 14-00-52$GPZDA,061223.04,22,05,2020,0,0*63
2020-05-22 14-00-52$GPGSV,2,2,6,26,78,061,023,31,10,165,076*42
2020-05-22 14-00-52$GPRMC,061222.92,A,0129.15014,N,00049.66060,E,0005.0,030.0,220520,0.0,W,A*18
2020-05-22 14-00-52$GPVTG,030.0,T,030.0,M,0005.0,N,00009.3,K,A*1C
2020-05-22 14-00-52$GPZDA,061222.93,22,05,2020,0,0*6C
2020-05-22 14-00-53$VDVBW,04.0,02.0,A,02.0,00.0,A,02.0,A,02.0,A*55
2020-05-22 14-00-53$VDVBW,00.0,00.0,A,00.0,00.0,A,00.0,A,00.0,A*51
2020-05-22 14-00-53$VWVHW,30.0,T,30.0,M,04.0,N,07.4,K*53
2020-05-22 14-00-53$VWVHW,30.0,T,30.0,M,00.0,N,00.0,K*54
2020-05-22 14-00-53$VWVLW,62.490,N,61.490,N*4F
2020-05-22 14-00-53$VWVLW,0.000,N,0.000,N*4C
2020-05-22 14-00-53$SDDBK,00.0,f,00.0,M,00.0,F*29
2020-05-22 14-00-53$SDDBS,00.0,f,00.0,M,00.0,F*31
2020-05-22 14-00-53$SDDBT,00.0,f,00.0,M,00.0,F*36
2020-05-22 14-00-53$SDDPT,0.0,0.0,*7B
2020-05-22 14-00-53$WIMTW,20.2,C*0D
2020-05-22 14-00-53$WIMWD,009.2,T,009.2,M,007.7,N,004.0,M*5E
2020-05-22 14-00-53$WIMWV,009.2,R,007.7,N,A*28
2020-05-22 14-00-53$WIVWR,020.8,L,007.7,N,004.0,M,014.2,K*40
2020-05-22 14-00-53$WIVWT,020.8,L,007.7,N,004.0,M,014.2,K*46
2020-05-22 14-00-53$HCHDG,30.0,01.2,E,00.0,W*60
2020-05-22 14-00-53$HEHDM,31.2,M*1F
2020-05-22 14-00-53$WIMTW,20.0,C*0F
2020-05-22 14-00-53$WIMWD,000.0,T,000.0,M,000.0,N,000.0,M*5A
2020-05-22 14-00-53$HEHDT,30.0,T*1C
2020-05-22 14-00-53$WIMWV,000.0,T,000.0,N,A*25
2020-05-22 14-00-53$HETHS,30.0,A*1E
2020-05-22 14-00-53$WIVWR,030.0,L,000.0,N,000.0,M,000.0,K*4A
2020-05-22 14-00-53$TIROT,00.0,A*0B
2020-05-22 14-00-53$WIVWT,030.0,L,000.0,N,000.0,M,000.0,K*4C
2020-05-22 14-00-53$GPGGA,061224.07,0134.80363,S,04654.47659,E,1,6,0.0,4,M,50.0,M,0,0*5E
2020-05-22 14-00-53$GPGLL,0134.80363,S,04654.47659,E,061224.58,A,A*78
2020-05-22 14-00-53$GPGSA,A,3,3,6,15,23,28,31,,,,,,,0.0,0.0,0.0*3A
2020-05-22 14-00-53$GPGSV,2,1,6,3,33,306,071,6,41,220,039,15,33,270,073,23,20,143,067*44
2020-05-22 14-00-53$GPGSV,2,2,6,28,3,212,002,31,88,080,076*7E
2020-05-22 14-00-53$GPGGA,061223.94,0129.15134,N,00049.66129,E,1,6,0.0,1398,M,50.0,M,,*74
2020-05-22 14-00-53$GPRMC,061224.06,A,0134.80363,S,04654.47659,E,0000.9,009.3,220520,0.0,W,A*09
2020-05-22 14-00-53$GPGLL,0129.15134,N,00049.66129,E,061223.92,A,A*69
2020-05-22 14-00-53$GPGSA,A,3,2,6,15,23,26,31,,,,,,,0.0,0.0,0.0*35
2020-05-22 14-00-53$GPVTG,009.3,T,009.3,M,0000.9,N,00001.7,K,A*1C
2020-05-22 14-00-53$GPGSV,2,1,6,2,39,065,065,6,66,347,059,15,80,311,039,23,50,320,099*4E
2020-05-22 14-00-53$GPZDA,061224.06,22,05,2020,0,0*66
2020-05-22 14-00-53$GPGSV,2,2,6,26,24,346,026,31,57,119,007*46
2020-05-22 14-00-53$GPRMC,061223.92,A,0129.15134,N,00049.66129,E,0005.0,030.0,220520,0.0,W,A*16
2020-05-22 14-00-53$GPVTG,030.0,T,030.0,M,0005.0,N,00009.3,K,A*1C
2020-05-22 14-00-53$GPZDA,061223.94,22,05,2020,0,0*6A
2020-05-22 14-00-53!AIVDM,1,1,,A,1<5UJi@P099EGnQf?hChG@Ca250l,0*11
2020-05-22 14-00-54$VDVBW,04.0,02.0,A,02.0,00.0,A,02.0,A,02.0,A*55
2020-05-22 14-00-54$VDVBW,00.0,00.0,A,00.0,00.0,A,00.0,A,00.0,A*51
2020-05-22 14-00-54$VWVHW,30.0,T,30.0,M,00.0,N,00.0,K*54
2020-05-22 14-00-54$VWVHW,30.0,T,30.0,M,04.0,N,07.4,K*53
2020-05-22 14-00-54$VWVLW,0.000,N,0.000,N*4C
2020-05-22 14-00-54$VWVLW,62.490,N,61.490,N*4F
2020-05-22 14-00-54$SDDBK,00.0,f,00.0,M,00.0,F*29
2020-05-22 14-00-54$SDDBS,00.0,f,00.0,M,00.0,F*31
2020-05-22 14-00-54$SDDBT,00.0,f,00.0,M,00.0,F*36
2020-05-22 14-00-54$SDDPT,0.0,0.0,*7B
2020-05-22 14-00-54$WIMTW,20.2,C*0D
2020-05-22 14-00-54$WIMWD,004.6,T,004.6,M,008.1,N,004.2,M*55
2020-05-22 14-00-54$WIMWV,004.6,R,008.1,N,A*28
2020-05-22 14-00-54$WIVWR,025.4,L,008.1,N,004.2,M,015.1,K*40
2020-05-22 14-00-54$WIVWT,025.4,L,008.1,N,004.2,M,015.1,K*46
2020-05-22 14-00-54$HCHDG,30.0,01.2,E,00.0,W*60
2020-05-22 14-00-54$HEHDM,31.2,M*1F
2020-05-22 14-00-54$HEHDT,30.0,T*1C
2020-05-22 14-00-54$HETHS,30.0,A*1E
2020-05-22 14-00-54$WIMTW,20.0,C*0F
2020-05-22 14-00-54$TIROT,00.0,A*0B
2020-05-22 14-00-54$WIMWD,000.0,T,000.0,M,000.0,N,000.0,M*5A
2020-05-22 14-00-54$WIMWV,000.0,T,000.0,N,A*25
2020-05-22 14-00-54$WIVWR,030.0,L,000.0,N,000.0,M,000.0,K*4A
2020-05-22 14-00-54$WIVWT,030.0,L,000.0,N,000.0,M,000.0,K*4C
2020-05-22 14-00-54$GPGGA,061225.06,0134.80338,S,04654.47663,E,1,6,0.0,4,M,50.0,M,0,0*59
2020-05-22 14-00-54$GPGLL,0134.80338,S,04654.47663,E,061225.40,A,A*77
2020-05-22 14-00-54$GPGSA,A,3,3,6,15,23,28,31,,,,,,,0.0,0.0,0.0*3A
2020-05-22 14-00-54$GPGSV,2,1,6,3,23,076,046,6,82,139,038,15,44,080,021,23,51,121,017*4F
2020-05-22 14-00-54$GPGSV,2,2,6,28,7,027,069,31,80,082,023*79
2020-05-22 14-00-54$GPRMC,061225.04,A,0134.80338,S,04654.47663,E,0000.9,009.3,220520,0.0,W,A*0D
2020-05-22 14-00-54$GPGGA,061224.94,0129.15254,N,00049.66198,E,1,6,0.0,1398,M,50.0,M,,*7C
2020-05-22 14-00-54$GPVTG,009.3,T,009.3,M,0000.9,N,00001.7,K,A*1C
2020-05-22 14-00-54$GPGLL,0129.15254,N,00049.66198,E,061224.92,A,A*61
2020-05-22 14-00-54$GPGSA,A,3,2,6,15,23,26,31,,,,,,,0.0,0.0,0.0*35
2020-05-22 14-00-54$GPZDA,061225.06,22,05,2020,0,0*67
2020-05-22 14-00-54$GPGSV,2,1,6,2,50,337,073,6,15,223,025,15,81,282,097,23,57,055,067*47
2020-05-22 14-00-54$GPGSV,2,2,6,26,10,128,097,31,52,327,056*4F
2020-05-22 14-00-54$GPRMC,061224.92,A,0129.15254,N,00049.66198,E,0005.0,030.0,220520,0.0,W,A*1E
2020-05-22 14-00-54$GPVTG,030.0,T,030.0,M,0005.0,N,00009.3,K,A*1C
2020-05-22 14-00-54$GPZDA,061224.93,22,05,2020,0,0*6A
2020-05-22 14-00-54!AIVDM,1,1,,A,1<5UJi@P099EGnQf?hD@G@Cc250l,0*3C
2020-05-22 14-00-55$VDVBW,04.0,02.0,A,02.0,00.0,A,02.0,A,02.0,A*55
2020-05-22 14-00-55$VDVBW,00.0,00.0,A,00.0,00.0,A,00.0,A,00.0,A*51
2020-05-22 14-00-55$VWVHW,30.0,T,30.0,M,04.0,N,07.4,K*53
2020-05-22 14-00-55$VWVHW,30.0,T,30.0,M,00.0,N,00.0,K*54
2020-05-22 14-00-55$VWVLW,62.490,N,61.490,N*4F
2020-05-22 14-00-55$VWVLW,0.000,N,0.000,N*4C
2020-05-22 14-00-55$SDDBK,00.0,f,00.0,M,00.0,F*29
2020-05-22 14-00-55$SDDBS,00.0,f,00.0,M,00.0,F*31
2020-05-22 14-00-55$SDDBT,00.0,f,00.0,M,00.0,F*36
2020-05-22 14-00-55$SDDPT,0.0,0.0,*7B
2020-05-22 14-00-55$WIMTW,20.2,C*0D
2020-05-22 14-00-55$WIMWD,006.1,T,006.1,M,008.1,N,004.2,M*55
2020-05-22 14-00-55$WIMWV,006.1,R,008.1,N,A*2D
2020-05-22 14-00-55$WIVWR,023.9,L,008.1,N,004.2,M,015.1,K*4B
2020-05-22 14-00-55$WIVWT,023.9,L,008.1,N,004.2,M,015.1,K*4D
2020-05-22 14-00-55$HCHDG,30.0,01.2,E,00.0,W*60
2020-05-22 14-00-55$HEHDM,31.2,M*1F
2020-05-22 14-00-55$HEHDT,30.0,T*1C
2020-05-22 14-00-55$HETHS,30.0,A*1E
2020-05-22 14-00-55$WIMTW,20.0,C*0F
2020-05-22 14-00-55$WIMWD,000.0,T,000.0,M,000.0,N,000.0,M*5A
2020-05-22 14-00-55$TIROT,00.0,A*0B
2020-05-22 14-00-55$WIMWV,000.0,T,000.0,N,A*25
2020-05-22 14-00-55$WIVWR,030.0,L,000.0,N,000.0,M,000.0,K*4A
2020-05-22 14-00-55$WIVWT,030.0,L,000.0,N,000.0,M,000.0,K*4C
2020-05-22 14-00-55$GPGGA,061226.06,0134.80313,S,04654.47667,E,1,6,0.0,4,M,50.0,M,0,0*57
2020-05-22 14-00-55$GPGLL,0134.80313,S,04654.47667,E,061226.45,A,A*7C
2020-05-22 14-00-55$GPGSA,A,3,3,6,15,23,28,31,,,,,,,0.0,0.0,0.0*3A
2020-05-22 14-00-55$GPGSV,2,1,6,3,74,284,008,6,16,184,017,15,56,312,079,23,38,135,060*42
2020-05-22 14-00-55$GPGSV,2,2,6,28,37,020,001,31,22,307,026*40
2020-05-22 14-00-55$GPRMC,061226.05,A,0134.80313,S,04654.47667,E,0000.9,009.3,220520,0.0,W,A*02
2020-05-22 14-00-55$GPGGA,061225.93,0129.15374,N,00049.66267,E,1,6,0.0,1398,M,50.0,M,,*7A
2020-05-22 14-00-55$GPGLL,0129.15374,N,00049.66267,E,061225.92,A,A*60
2020-05-22 14-00-55$GPVTG,009.3,T,009.3,M,0000.9,N,00001.7,K,A*1C
2020-05-22 14-00-55$GPZDA,061226.05,22,05,2020,0,0*67
2020-05-22 14-00-55$GPGSA,A,3,2,6,15,23,26,31,,,,,,,0.0,0.0,0.0*35
2020-05-22 14-00-55$GPGSV,2,1,6,2,18,279,080,6,4,279,003,15,13,193,069,23,4,243,004*48
2020-05-22 14-00-55$GPGSV,2,2,6,26,58,329,080,31,59,320,064*4B
2020-05-22 14-00-55$GPRMC,061225.92,A,0129.15374,N,00049.66267,E,0005.0,030.0,220520,0.0,W,A*1F
2020-05-22 14-00-55$GPVTG,030.0,T,030.0,M,0005.0,N,00009.3,K,A*1C
2020-05-22 14-00-55$GPZDA,061225.93,22,05,2020,0,0*6B
2020-05-22 14-00-55!AIVDM,1,1,,A,1<5UJi@P099EGnSf?hEPG@Cg250l,0*2B
2020-05-22 14-00-56$VDVBW,04.0,02.0,A,02.0,00.0,A,02.0,A,02.0,A*55
2020-05-22 14-00-56$VDVBW,00.0,00.0,A,00.0,00.0,A,00.0,A,00.0,A*51
2020-05-22 14-00-56$VWVHW,30.0,T,30.0,M,04.0,N,07.4,K*53
2020-05-22 14-00-56$VWVHW,30.0,T,30.0,M,00.0,N,00.0,K*54
2020-05-22 14-00-56$VWVLW,62.491,N,61.491,N*4F
2020-05-22 14-00-56$VWVLW,0.000,N,0.000,N*4C
2020-05-22 14-00-56$SDDBK,00.0,f,00.0,M,00.0,F*29
2020-05-22 14-00-56$SDDBS,00.0,f,00.0,M,00.0,F*31
2020-05-22 14-00-56$SDDBT,00.0,f,00.0,M,00.0,F*36
2020-05-22 14-00-56$SDDPT,0.0,0.0,*7B
2020-05-22 14-00-56$WIMTW,20.2,C*0D
2020-05-22 14-00-56$WIMWD,009.2,T,009.2,M,007.9,N,004.1,M*51
2020-05-22 14-00-56$WIMWV,009.2,R,007.9,N,A*26
2020-05-22 14-00-56$WIVWR,020.8,L,007.9,N,004.1,M,014.7,K*4A
2020-05-22 14-00-56$WIVWT,020.8,L,007.9,N,004.1,M,014.7,K*4C
2020-05-22 14-00-56$HCHDG,30.0,01.2,E,00.0,W*60
2020-05-22 14-00-56$HEHDM,31.2,M*1F
2020-05-22 14-00-56$HEHDT,30.0,T*1C
2020-05-22 14-00-56$HETHS,30.0,A*1E
2020-05-22 14-00-56$WIMTW,20.0,C*0F
2020-05-22 14-00-56$WIMWD,000.0,T,000.0,M,000.0,N,000.0,M*5A
2020-05-22 14-00-56$TIROT,00.0,A*0B
2020-05-22 14-00-56$WIMWV,000.0,T,000.0,N,A*25
2020-05-22 14-00-56$WIVWR,030.0,L,000.0,N,000.0,M,000.0,K*4A
2020-05-22 14-00-56$WIVWT,030.0,L,000.0,N,000.0,M,000.0,K*4C
2020-05-22 14-00-56$GPGGA,061227.05,0134.80288,S,04654.47671,E,1,6,0.0,4,M,50.0,M,0,0*51
2020-05-22 14-00-56$GPGLL,0134.80288,S,04654.47671,E,061227.41,A,A*7D
2020-05-22 14-00-56$GPGSA,A,3,3,6,15,23,28,31,,,,,,,0.0,0.0,0.0*3A
2020-05-22 14-00-56$GPGSV,2,1,6,3,43,190,020,6,32,295,085,15,50,150,002,23,49,195,017*46
2020-05-22 14-00-56$GPGSV,2,2,6,28,57,124,065,31,5,146,084*7B
2020-05-22 14-00-56$GPRMC,061227.04,A,0134.80288,S,04654.47671,E,0000.9,009.3,220520,0.0,W,A*06
2020-05-22 14-00-56$GPGGA,061226.94,0129.15494,N,00049.66336,E,1,6,0.0,1398,M,50.0,M,,*72
2020-05-22 14-00-56$GPGLL,0129.15494,N,00049.66336,E,061226.92,A,A*6F
2020-05-22 14-00-56$GPVTG,009.3,T,009.3,M,0000.9,N,00001.7,K,A*1C
2020-05-22 14-00-56$GPGSA,A,3,2,6,15,23,26,31,,,,,,,0.0,0.0,0.0*35
2020-05-22 14-00-56$GPZDA,061227.05,22,05,2020,0,0*66
2020-05-22 14-00-56$GPGSV,2,1,6,2,11,091,088,6,31,250,074,15,90,314,066,23,28,109,032*4F
2020-05-22 14-00-56$GPGSV,2,2,6,26,11,004,011,31,9,336,029*79
2020-05-22 14-00-56$GPRMC,061226.92,A,0129.15494,N,00049.66336,E,0005.0,030.0,220520,0.0,W,A*10
2020-05-22 14-00-56$GPVTG,030.0,T,030.0,M,0005.0,N,00009.3,K,A*1C
2020-05-22 14-00-56$GPZDA,061226.93,22,05,2020,0,0*68
2020-05-22 14-00-56!AIVDM,1,1,,A,1<5UJi@P099EGnUf?hF@G@Ci250l,0*30
2020-05-22 14-00-57$VDVBW,04.0,02.0,A,02.0,00.0,A,02.0,A,02.0,A*55
2020-05-22 14-00-57$VDVBW,00.0,00.0,A,00.0,00.0,A,00.0,A,00.0,A*51
2020-05-22 14-00-57$VWVHW,30.0,T,30.0,M,04.0,N,07.4,K*53
2020-05-22 14-00-57$VWVHW,30.0,T,30.0,M,00.0,N,00.0,K*54
2020-05-22 14-00-57$VWVLW,0.000,N,0.000,N*4C
2020-05-22 14-00-57$VWVLW,62.491,N,61.491,N*4F
2020-05-22 14-00-57$SDDBK,00.0,f,00.0,M,00.0,F*29
2020-05-22 14-00-57$SDDBS,00.0,f,00.0,M,00.0,F*31
2020-05-22 14-00-57$SDDBT,00.0,f,00.0,M,00.0,F*36
2020-05-22 14-00-57$SDDPT,0.0,0.0,*7B
2020-05-22 14-00-57$WIMTW,20.2,C*0D
2020-05-22 14-00-57$WIMWD,010.2,T,010.2,M,008.1,N,004.2,M*55
2020-05-22 14-00-57$WIMWV,010.2,R,008.1,N,A*29
2020-05-22 14-00-57$WIVWR,019.8,L,008.1,N,004.2,M,015.0,K*42
2020-05-22 14-00-57$WIVWT,019.8,L,008.1,N,004.2,M,015.0,K*44
2020-05-22 14-00-57$HCHDG,30.0,01.2,E,00.0,W*60
2020-05-22 14-00-57$HEHDM,31.2,M*1F
2020-05-22 14-00-57$HEHDT,30.0,T*1C
2020-05-22 14-00-57$HETHS,30.0,A*1E
2020-05-22 14-00-57$WIMTW,20.0,C*0F
2020-05-22 14-00-57$TIROT,00.0,A*0B
2020-05-22 14-00-57$WIMWD,000.0,T,000.0,M,000.0,N,000.0,M*5A
2020-05-22 14-00-57$WIMWV,000.0,T,000.0,N,A*25
2020-05-22 14-00-57$WIVWR,030.0,L,000.0,N,000.0,M,000.0,K*4A
2020-05-22 14-00-57$WIVWT,030.0,L,000.0,N,000.0,M,000.0,K*4C
2020-05-22 14-00-57$GPGGA,061228.07,0134.80263,S,04654.47675,E,1,6,0.0,4,M,50.0,M,0,0*5D
2020-05-22 14-00-57$GPGLL,0134.80263,S,04654.47675,E,061228.54,A,A*77
2020-05-22 14-00-57$GPGSA,A,3,3,6,15,23,28,31,,,,,,,0.0,0.0,0.0*3A
2020-05-22 14-00-57$GPGSV,2,1,6,3,38,122,053,6,7,258,042,15,11,354,069,23,41,309,010*7D
2020-05-22 14-00-57$GPGSV,2,2,6,28,64,126,060,31,44,003,073*41
2020-05-22 14-00-57$GPRMC,061228.05,A,0134.80263,S,04654.47675,E,0000.9,009.3,220520,0.0,W,A*09
2020-05-22 14-00-57$GPGGA,061227.93,0129.15614,N,00049.66405,E,1,6,0.0,1398,M,50.0,M,,*79
2020-05-22 14-00-57$GPVTG,009.3,T,009.3,M,0000.9,N,00001.7,K,A*1C
2020-05-22 14-00-57$GPGLL,0129.15614,N,00049.66405,E,061227.92,A,A*63
2020-05-22 14-00-57$GPZDA,061228.06,22,05,2020,0,0*6A
2020-05-22 14-00-57$GPGSA,A,3,2,6,15,23,26,31,,,,,,,0.0,0.0,0.0*35
2020-05-22 14-00-57$GPGSV,2,1,6,2,2,188,062,6,42,156,049,15,73,056,059,23,90,038,004*7E
2020-05-22 14-00-57$GPGSV,2,2,6,26,72,219,085,31,4,251,043*7E
2020-05-22 14-00-57$GPRMC,061227.92,A,0129.15614,N,00049.66405,E,0005.0,030.0,220520,0.0,W,A*1C
2020-05-22 14-00-57$GPVTG,030.0,T,030.0,M,0005.0,N,00009.3,K,A*1C
2020-05-22 14-00-57$GPZDA,061227.93,22,05,2020,0,0*69
2020-05-22 14-00-57!AIVDM,1,1,,A,1<5UJi@P099EGnUf?hFhG@Ck250l,0*1A
2020-05-22 14-00-58$VDVBW,04.0,02.0,A,02.0,00.0,A,02.0,A,02.0,A*55
2020-05-22 14-00-58$VDVBW,00.0,00.0,A,00.0,00.0,A,00.0,A,00.0,A*51
2020-05-22 14-00-58$VWVHW,30.0,T,30.0,M,04.0,N,07.4,K*53
2020-05-22 14-00-58$VWVHW,30.0,T,30.0,M,00.0,N,00.0,K*54
2020-05-22 14-00-58$VWVLW,62.492,N,61.492,N*4F
2020-05-22 14-00-58$VWVLW,0.000,N,0.000,N*4C
2020-05-22 14-00-58$SDDBK,00.0,f,00.0,M,00.0,F*29
2020-05-22 14-00-58$SDDBS,00.0,f,00.0,M,00.0,F*31
2020-05-22 14-00-58$SDDBT,00.0,f,00.0,M,00.0,F*36
2020-05-22 14-00-58$SDDPT,0.0,0.0,*7B
2020-05-22 14-00-58$WIMTW,20.2,C*0D
2020-05-22 14-00-58$WIMWD,009.4,T,009.4,M,007.9,N,004.1,M*51
2020-05-22 14-00-58$WIMWV,009.4,R,007.9,N,A*20
2020-05-22 14-00-58$WIVWR,020.6,L,007.9,N,004.1,M,014.7,K*44
2020-05-22 14-00-58$WIVWT,020.6,L,007.9,N,004.1,M,014.7,K*42
2020-05-22 14-00-58$HCHDG,30.0,01.2,E,00.0,W*60
2020-05-22 14-00-58$HEHDM,31.2,M*1F
2020-05-22 14-00-58$HEHDT,30.0,T*1C
2020-05-22 14-00-58$HETHS,30.0,A*1E
2020-05-22 14-00-58$WIMTW,20.0,C*0F
2020-05-22 14-00-58$TIROT,00.0,A*0B
2020-05-22 14-00-58$WIMWD,000.0,T,000.0,M,000.0,N,000.0,M*5A
2020-05-22 14-00-58$WIMWV,000.0,T,000.0,N,A*25
2020-05-22 14-00-58$WIVWR,030.0,L,000.0,N,000.0,M,000.0,K*4A
2020-05-22 14-00-58$WIVWT,030.0,L,000.0,N,000.0,M,000.0,K*4C
2020-05-22 14-00-58$GPGGA,061229.07,0134.80238,S,04654.47679,E,1,6,0.0,4,M,50.0,M,0,0*5E
2020-05-22 14-00-58$GPGLL,0134.80238,S,04654.47679,E,061229.60,A,A*73
2020-05-22 14-00-58$GPGSA,A,3,3,6,15,23,28,31,,,,,,,0.0,0.0,0.0*3A
2020-05-22 14-00-58$GPGSV,2,1,6,3,2,174,024,6,16,210,000,15,29,015,005,23,49,101,092*72
2020-05-22 14-00-58$GPGSV,2,2,6,28,34,033,013,31,64,061,050*42
2020-05-22 14-00-58$GPGGA,061228.96,0129.15734,N,00049.66474,E,1,6,0.0,1398,M,50.0,M,,*76
2020-05-22 14-00-58$GPRMC,061229.06,A,0134.80238,S,04654.47679,E,0000.9,009.3,220520,0.0,W,A*09
2020-05-22 14-00-58$GPVTG,009.3,T,009.3,M,0000.9,N,00001.7,K,A*1C
2020-05-22 14-00-58$GPGLL,0129.15734,N,00049.66474,E,061228.93,A,A*68
2020-05-22 14-00-58$GPZDA,061229.07,22,05,2020,0,0*6A
2020-05-22 14-00-58$GPGSA,A,3,2,6,15,23,26,31,,,,,,,0.0,0.0,0.0*35
2020-05-22 14-00-58$GPGSV,2,1,6,2,71,133,029,6,20,029,019,15,9,134,084,23,27,347,002*74
2020-05-22 14-00-58$GPGSV,2,2,6,26,3,247,099,31,29,097,096*71
2020-05-22 14-00-58$GPRMC,061228.95,A,0129.15734,N,00049.66474,E,0005.0,030.0,220520,0.0,W,A*11
2020-05-22 14-00-58$GPVTG,030.0,T,030.0,M,0005.0,N,00009.3,K,A*1C
2020-05-22 14-00-58$GPZDA,061228.96,22,05,2020,0,0*63
2020-05-22 14-00-58!AIVDM,1,1,,A,1<5UJi@P099EGnWf?hGPG@Cm250l,0*27
2020-05-22 14-00-59$VDVBW,04.0,02.0,A,02.0,00.0,A,02.0,A,02.0,A*55
2020-05-22 14-00-59$VDVBW,00.0,00.0,A,00.0,00.0,A,00.0,A,00.0,A*51
2020-05-22 14-00-59$VWVHW,30.0,T,30.0,M,04.0,N,07.4,K*53
2020-05-22 14-00-59$VWVHW,30.0,T,30.0,M,00.0,N,00.0,K*54
2020-05-22 14-00-59$VWVLW,62.493,N,61.493,N*4F
2020-05-22 14-00-59$VWVLW,0.000,N,0.000,N*4C
2020-05-22 14-00-59$SDDBK,00.0,f,00.0,M,00.0,F*29
2020-05-22 14-00-59$SDDBS,00.0,f,00.0,M,00.0,F*31
2020-05-22 14-00-59$SDDBT,00.0,f,00.0,M,00.0,F*36
2020-05-22 14-00-59$SDDPT,0.0,0.0,*7B
2020-05-22 14-00-59$WIMTW,20.2,C*0D
2020-05-22 14-00-59$WIMWD,005.0,T,005.0,M,007.9,N,004.1,M*51
2020-05-22 14-00-59$WIMWV,005.0,R,007.9,N,A*28
2020-05-22 14-00-59$WIVWR,025.0,L,007.9,N,004.1,M,014.6,K*46
2020-05-22 14-00-59$WIVWT,025.0,L,007.9,N,004.1,M,014.6,K*40
2020-05-22 14-00-59$HCHDG,30.0,01.2,E,00.0,W*60
2020-05-22 14-00-59$HEHDM,31.2,M*1F
2020-05-22 14-00-59$HEHDT,30.0,T*1C
2020-05-22 14-00-59$HETHS,30.0,A*1E
2020-05-22 14-00-59$WIMTW,20.0,C*0F
2020-05-22 14-00-59$TIROT,00.0,A*0B
2020-05-22 14-00-59$WIMWD,000.0,T,000.0,M,000.0,N,000.0,M*5A
2020-05-22 14-00-59$WIMWV,000.0,T,000.0,N,A*25
2020-05-22 14-00-59$WIVWR,030.0,L,000.0,N,000.0,M,000.0,K*4A
2020-05-22 14-00-59$WIVWT,030.0,L,000.0,N,000.0,M,000.0,K*4C
2020-05-22 14-00-59$GPGGA,061230.06,0134.80213,S,04654.47683,E,1,6,0.0,4,M,50.0,M,0,0*5B
2020-05-22 14-00-59$GPGLL,0134.80213,S,04654.47683,E,061230.39,A,A*7B
2020-05-22 14-00-59$GPGSA,A,3,3,6,15,23,28,31,,,,,,,0.0,0.0,0.0*3A
