2020-05-22 15-59-00$GPGGA,065139.79,0131.97854,N,00051.28693,E,1,6,0.0,1398,M,50.0,M,,*72
2020-05-22 15-59-00$GPGLL,0131.97854,N,00051.28693,E,065139.77,A,A*67
2020-05-22 15-59-00$GPGSA,A,3,2,6,15,23,26,31,,,,,,,0.0,0.0,0.0*35
2020-05-22 15-59-00$GPGSV,2,1,6,2,75,118,045,6,20,195,094,15,23,059,050,23,12,004,041*4E
2020-05-22 15-59-00$GPGSV,2,2,6,26,13,082,003,31,7,077,006*73
2020-05-22 15-59-00$GPRMC,065139.77,A,0131.97854,N,00051.28693,E,0005.0,030.0,220520,0.0,W,A*18
2020-05-22 15-59-00$VDVBW,00.0,00.0,A,00.0,00.0,A,00.0,A,00.0,A*51
2020-05-22 15-59-00$GPVTG,030.0,T,030.0,M,0005.0,N,00009.3,K,A*1C
2020-05-22 15-59-00$VWVHW,30.0,T,30.0,M,00.0,N,00.0,K*54
2020-05-22 15-59-00$GPZDA,065139.78,22,05,2020,0,0*64
2020-05-22 15-59-00$VWVLW,0.000,N,0.000,N*4C
2020-05-22 15-59-00$GPGGA,065140.90,0134.21463,S,04654.57083,E,1,6,0.0,4,M,50.0,M,0,0*59
2020-05-22 15-59-00$GPGLL,0134.21463,S,04654.57083,E,065140.88,A,A*7C
2020-05-22 15-59-00$GPGSA,A,3,3,6,15,23,28,31,,,,,,,0.0,0.0,0.0*3A
2020-05-22 15-59-00$GPGSV,2,1,6,3,6,037,011,6,61,283,063,15,13,196,019,23,14,114,005*75
2020-05-22 15-59-00$GPGSV,2,2,6,28,80,333,053,31,32,174,012*4A
2020-05-22 15-59-00$GPRMC,065140.89,A,0134.21463,S,04654.57083,E,0000.9,009.3,220520,0.0,W,A*07
2020-05-22 15-59-00$GPVTG,009.3,T,009.3,M,0000.9,N,00001.7,K,A*1C
2020-05-22 15-59-00$GPZDA,065140.89,22,05,2020,0,0*64
2020-05-22 15-59-00$VDVBW,04.0,02.0,A,02.0,00.0,A,02.0,A,02.0,A*55
2020-05-22 15-59-00$VWVHW,30.0,T,30.0,M,04.0,N,07.4,K*53
2020-05-22 15-59-00$VWVLW,68.989,N,67.989,N*43
2020-05-22 15-59-00$WIMTW,20.2,C*0D
2020-05-22 15-59-00$WIMWD,006.8,T,006.8,M,008.3,N,004.3,M*56
2020-05-22 15-59-00$WIMWV,006.8,R,008.3,N,A*26
2020-05-22 15-59-00$WIVWR,023.2,L,008.3,N,004.3,M,015.3,K*41
2020-05-22 15-59-00$WIVWT,023.2,L,008.3,N,004.3,M,015.3,K*47
2020-05-22 15-59-00$HCHDG,30.0,01.2,E,00.0,W*60
2020-05-22 15-59-00$HEHDM,31.2,M*1F
2020-05-22 15-59-00$HEHDT,30.0,T*1C
2020-05-22 15-59-00$HETHS,30.0,A*1E
2020-05-22 15-59-00$TIROT,00.0,A*0B
2020-05-22 15-59-00$WIMTW,20.0,C*0F
2020-05-22 15-59-00$WIMWD,000.0,T,000.0,M,000.0,N,000.0,M*5A
2020-05-22 15-59-00$WIMWV,000.0,T,000.0,N,A*25
2020-05-22 15-59-00$WIVWR,030.0,L,000.0,N,000.0,M,000.0,K*4A
2020-05-22 15-59-00$WIVWT,030.0,L,000.0,N,000.0,M,000.0,K*4C
2020-05-22 15-59-00$SDDBK,00.0,f,00.0,M,00.0,F*29
2020-05-22 15-59-00$SDDBS,00.0,f,00.0,M,00.0,F*31
2020-05-22 15-59-00$SDDBT,00.0,f,00.0,M,00.0,F*36
2020-05-22 15-59-00$SDDPT,0.0,0.0,*7B
2020-05-22 15-59-01!AIVDM,1,1,,A,1<5UJi@P099EHKEf@7DhG@Co250l,0*06
2020-05-22 15-59-01$VDVBW,00.0,00.0,A,00.0,00.0,A,00.0,A,00.0,A*51
2020-05-22 15-59-01$GPGGA,065140.78,0131.97974,N,00051.28762,E,1,6,0.0,1398,M,50.0,M,,*71
2020-05-22 15-59-01$GPGLL,0131.97974,N,00051.28762,E,065140.76,A,A*64
2020-05-22 15-59-01$VWVHW,30.0,T,30.0,M,00.0,N,00.0,K*54
2020-05-22 15-59-01$VWVLW,0.000,N,0.000,N*4C
2020-05-22 15-59-01$GPGSA,A,3,2,6,15,23,26,31,,,,,,,0.0,0.0,0.0*35
2020-05-22 15-59-01$GPGSV,2,1,6,2,48,223,012,6,58,082,047,15,19,150,059,23,9,327,021*79
2020-05-22 15-59-01$GPGSV,2,2,6,26,27,269,016,31,25,082,059*47
2020-05-22 15-59-01$GPRMC,065140.77,A,0131.97974,N,00051.28762,E,0005.0,030.0,220520,0.0,W,A*1A
2020-05-22 15-59-01$GPVTG,030.0,T,030.0,M,0005.0,N,00009.3,K,A*1C
2020-05-22 15-59-01$GPZDA,065140.78,22,05,2020,0,0*6A
2020-05-22 15-59-01$GPGGA,065141.89,0134.21438,S,04654.57087,E,1,6,0.0,4,M,50.0,M,0,0*5A
2020-05-22 15-59-01$GPGLL,0134.21438,S,04654.57087,E,065141.87,A,A*78
2020-05-22 15-59-01$GPGSA,A,3,3,6,15,23,28,31,,,,,,,0.0,0.0,0.0*3A
2020-05-22 15-59-01$GPGSV,2,1,6,3,41,193,002,6,51,339,041,15,35,106,090,23,26,156,025*41
2020-05-22 15-59-01$GPGSV,2,2,6,28,38,175,036,31,63,312,037*4B
2020-05-22 15-59-01$GPRMC,065141.88,A,0134.21438,S,04654.57087,E,0000.9,009.3,220520,0.0,W,A*0D
2020-05-22 15-59-01$GPVTG,009.3,T,009.3,M,0000.9,N,00001.7,K,A*1C
2020-05-22 15-59-01$GPZDA,065141.88,22,05,2020,0,0*64
2020-05-22 15-59-01$VDVBW,04.0,02.0,A,02.0,00.0,A,02.0,A,02.0,A*55
2020-05-22 15-59-01$VWVHW,30.0,T,30.0,M,04.0,N,07.4,K*53
2020-05-22 15-59-01$VWVLW,68.989,N,67.989,N*43
2020-05-22 15-59-01$WIMTW,20.2,C*0D
2020-05-22 15-59-01$WIMWD,004.6,T,004.6,M,008.3,N,004.3,M*56
2020-05-22 15-59-01$WIMWV,004.6,R,008.3,N,A*2A
2020-05-22 15-59-01$WIVWR,025.4,L,008.3,N,004.3,M,015.4,K*46
2020-05-22 15-59-01$WIVWT,025.4,L,008.3,N,004.3,M,015.4,K*40
2020-05-22 15-59-01$HCHDG,30.0,01.2,E,00.0,W*60
2020-05-22 15-59-01$HEHDM,31.2,M*1F
2020-05-22 15-59-01$HEHDT,30.0,T*1C
2020-05-22 15-59-01$HETHS,30.0,A*1E
2020-05-22 15-59-01$TIROT,00.0,A*0B
2020-05-22 15-59-01$WIMTW,20.0,C*0F
2020-05-22 15-59-01$WIMWD,000.0,T,000.0,M,000.0,N,000.0,M*5A
2020-05-22 15-59-01$WIMWV,000.0,T,000.0,N,A*25
2020-05-22 15-59-01$WIVWR,030.0,L,000.0,N,000.0,M,000.0,K*4A
2020-05-22 15-59-01$WIVWT,030.0,L,000.0,N,000.0,M,000.0,K*4C
2020-05-22 15-59-01$SDDBK,00.0,f,00.0,M,00.0,F*29
2020-05-22 15-59-01$SDDBS,00.0,f,00.0,M,00.0,F*31
2020-05-22 15-59-01$SDDBT,00.0,f,00.0,M,00.0,F*36
2020-05-22 15-59-01$SDDPT,0.0,0.0,*7B
2020-05-22 15-59-02!AIVDM,1,1,,A,1<5UJi@P099EHKGf@7EPG@B3250l,0*60
2020-05-22 15-59-02$VDVBW,00.0,00.0,A,00.0,00.0,A,00.0,A,00.0,A*51
2020-05-22 15-59-02$VWVHW,30.0,T,30.0,M,00.0,N,00.0,K*54
2020-05-22 15-59-02$VWVLW,0.000,N,0.000,N*4C
2020-05-22 15-59-02$GPGGA,065141.78,0131.98094,N,00051.28831,E,1,6,0.0,1398,M,50.0,M,,*71
2020-05-22 15-59-02$GPGLL,0131.98094,N,00051.28831,E,065141.76,A,A*64
2020-05-22 15-59-02$GPGSA,A,3,2,6,15,23,26,31,,,,,,,0.0,0.0,0.0*35
2020-05-22 15-59-02$GPGSV,2,1,6,2,12,260,001,6,16,196,052,15,70,082,004,23,46,141,076*4B
2020-05-22 15-59-02$GPGSV,2,2,6,26,5,352,097,31,47,065,028*7C
2020-05-22 15-59-02$GPRMC,065141.77,A,0131.98094,N,00051.28831,E,0005.0,030.0,220520,0.0,W,A*1A
2020-05-22 15-59-02$GPVTG,030.0,T,030.0,M,0005.0,N,00009.3,K,A*1C
2020-05-22 15-59-02$GPZDA,065141.77,22,05,2020,0,0*64
2020-05-22 15-59-02$GPGGA,065142.91,0134.21413,S,04654.57091,E,1,6,0.0,4,M,50.0,M,0,0*5E
2020-05-22 15-59-02$GPGLL,0134.21413,S,04654.57091,E,065142.88,A,A*7A
2020-05-22 15-59-02$GPGSA,A,3,3,6,15,23,28,31,,,,,,,0.0,0.0,0.0*3A
2020-05-22 15-59-02$VDVBW,04.0,02.0,A,02.0,00.0,A,02.0,A,02.0,A*55
2020-05-22 15-59-02$VWVHW,30.0,T,30.0,M,04.0,N,07.4,K*53
2020-05-22 15-59-02$GPGSV,2,1,6,3,68,241,064,6,23,186,066,15,81,250,058,23,19,045,025*44
2020-05-22 15-59-02$GPGSV,2,2,6,28,26,086,020,31,0,273,021*7A
2020-05-22 15-59-02$VWVLW,68.990,N,67.990,N*43
2020-05-22 15-59-02$GPRMC,065142.89,A,0134.21413,S,04654.57091,E,0000.9,009.3,220520,0.0,W,A*01
2020-05-22 15-59-02$GPVTG,009.3,T,009.3,M,0000.9,N,00001.7,K,A*1C
2020-05-22 15-59-02$GPZDA,065142.91,22,05,2020,0,0*6F
2020-05-22 15-59-02$WIMTW,20.2,C*0D
2020-05-22 15-59-02$WIMWD,007.9,T,007.9,M,007.9,N,004.1,M*51
2020-05-22 15-59-02$WIMWV,007.9,R,007.9,N,A*23
2020-05-22 15-59-02$WIVWR,022.1,L,007.9,N,004.1,M,014.7,K*41
2020-05-22 15-59-02$WIVWT,022.1,L,007.9,N,004.1,M,014.7,K*47
2020-05-22 15-59-02$HCHDG,30.0,01.2,E,00.0,W*60
2020-05-22 15-59-02$HEHDM,31.2,M*1F
2020-05-22 15-59-02$HEHDT,30.0,T*1C
2020-05-22 15-59-02$HETHS,30.0,A*1E
2020-05-22 15-59-02$TIROT,00.0,A*0B
2020-05-22 15-59-02$WIMTW,20.0,C*0F
2020-05-22 15-59-02$WIMWD,000.0,T,000.0,M,000.0,N,000.0,M*5A
2020-05-22 15-59-02$WIMWV,000.0,T,000.0,N,A*25
2020-05-22 15-59-02$WIVWR,030.0,L,000.0,N,000.0,M,000.0,K*4A
2020-05-22 15-59-02$WIVWT,030.0,L,000.0,N,000.0,M,000.0,K*4C
2020-05-22 15-59-02$SDDBK,00.0,f,00.0,M,00.0,F*29
2020-05-22 15-59-02$SDDBS,00.0,f,00.0,M,00.0,F*31
2020-05-22 15-59-02$SDDBT,00.0,f,00.0,M,00.0,F*36
2020-05-22 15-59-02$SDDPT,0.0,0.0,*7B
2020-05-22 15-59-03!AIVDM,1,1,,A,1<5UJi@P099EHKGf@7F0G@B5250l,0*05
2020-05-22 15-59-03$VDVBW,00.0,00.0,A,00.0,00.0,A,00.0,A,00.0,A*51
2020-05-22 15-59-03$VWVHW,30.0,T,30.0,M,00.0,N,00.0,K*54
2020-05-22 15-59-03$VWVLW,0.000,N,0.000,N*4C
2020-05-22 15-59-03$GPGGA,065142.78,0131.98214,N,00051.28900,E,1,6,0.0,1398,M,50.0,M,,*7B
2020-05-22 15-59-03$GPGLL,0131.98214,N,00051.28900,E,065142.76,A,A*6E
2020-05-22 15-59-03$GPGSA,A,3,2,6,15,23,26,31,,,,,,,0.0,0.0,0.0*35
2020-05-22 15-59-03$GPGSV,2,1,6,2,46,159,050,6,80,004,028,15,66,004,050,23,74,277,018*48
2020-05-22 15-59-03$GPGSV,2,2,6,26,89,114,069,31,77,345,063*44
2020-05-22 15-59-03$GPRMC,065142.77,A,0131.98214,N,00051.28900,E,0005.0,030.0,220520,0.0,W,A*10
2020-05-22 15-59-03$GPVTG,030.0,T,030.0,M,0005.0,N,00009.3,K,A*1C
2020-05-22 15-59-03$VDVBW,04.0,02.0,A,02.0,00.0,A,02.0,A,02.0,A*55
2020-05-22 15-59-03$GPZDA,065142.77,22,05,2020,0,0*67
2020-05-22 15-59-03$VWVHW,30.0,T,30.0,M,04.0,N,07.4,K*53
2020-05-22 15-59-03$VWVLW,68.991,N,67.991,N*43
2020-05-22 15-59-03$GPGGA,065143.92,0134.21388,S,04654.57095,E,1,6,0.0,4,M,50.0,M,0,0*5D
2020-05-22 15-59-03$GPGLL,0134.21388,S,04654.57095,E,065143.90,A,A*73
2020-05-22 15-59-03$GPGSA,A,3,3,6,15,23,28,31,,,,,,,0.0,0.0,0.0*3A
2020-05-22 15-59-03$GPGSV,2,1,6,3,70,270,038,6,44,025,042,15,76,284,052,23,2,265,096*70
2020-05-22 15-59-03$GPGSV,2,2,6,28,8,234,095,31,54,053,069*7E
2020-05-22 15-59-03$GPRMC,065143.91,A,0134.21388,S,04654.57095,E,0000.9,009.3,220520,0.0,W,A*08
2020-05-22 15-59-03$GPVTG,009.3,T,009.3,M,0000.9,N,00001.7,K,A*1C
2020-05-22 15-59-03$GPZDA,065143.91,22,05,2020,0,0*6E
2020-05-22 15-59-03$WIMTW,20.2,C*0D
2020-05-22 15-59-03$WIMWD,009.8,T,009.8,M,008.0,N,004.1,M*57
2020-05-22 15-59-03$WIMWV,009.8,R,008.0,N,A*2A
2020-05-22 15-59-03$WIVWR,020.2,L,008.0,N,004.1,M,014.8,K*49
2020-05-22 15-59-03$WIVWT,020.2,L,008.0,N,004.1,M,014.8,K*4F
2020-05-22 15-59-03$HCHDG,30.0,01.2,E,00.0,W*60
2020-05-22 15-59-03$HEHDM,31.2,M*1F
2020-05-22 15-59-03$HEHDT,30.0,T*1C
2020-05-22 15-59-03$HETHS,30.0,A*1E
2020-05-22 15-59-03$TIROT,00.0,A*0B
2020-05-22 15-59-03$WIMTW,20.0,C*0F
2020-05-22 15-59-03$WIMWD,000.0,T,000.0,M,000.0,N,000.0,M*5A
2020-05-22 15-59-03$WIMWV,000.0,T,000.0,N,A*25
2020-05-22 15-59-03$WIVWR,030.0,L,000.0,N,000.0,M,000.0,K*4A
2020-05-22 15-59-03$WIVWT,030.0,L,000.0,N,000.0,M,000.0,K*4C
2020-05-22 15-59-03$SDDBK,00.0,f,00.0,M,00.0,F*29
2020-05-22 15-59-03$SDDBS,00.0,f,00.0,M,00.0,F*31
2020-05-22 15-59-03$SDDBT,00.0,f,00.0,M,00.0,F*36
2020-05-22 15-59-03$SDDPT,0.0,0.0,*7B
2020-05-22 15-59-04!AIVDM,1,1,,A,1<5UJi@P099EHKIf@7FhG@B7250l,0*51
2020-05-22 15-59-04$VDVBW,00.0,00.0,A,00.0,00.0,A,00.0,A,00.0,A*51
2020-05-22 15-59-04$VWVHW,30.0,T,30.0,M,00.0,N,00.0,K*54
2020-05-22 15-59-04$VWVLW,0.000,N,0.000,N*4C
2020-05-22 15-59-04$GPGGA,065143.79,0131.98334,N,00051.28969,E,1,6,0.0,1398,M,50.0,M,,*77
2020-05-22 15-59-04$GPGLL,0131.98334,N,00051.28969,E,065143.77,A,A*62
2020-05-22 15-59-04$VDVBW,04.0,02.0,A,02.0,00.0,A,02.0,A,02.0,A*55
2020-05-22 15-59-04$GPGSA,A,3,2,6,15,23,26,31,,,,,,,0.0,0.0,0.0*35
2020-05-22 15-59-04$VWVHW,30.0,T,30.0,M,04.0,N,07.4,K*53
2020-05-22 15-59-04$GPGSV,2,1,6,2,29,276,062,6,54,254,088,15,74,053,073,23,43,117,065*41
2020-05-22 15-59-04$VWVLW,68.991,N,67.991,N*43
2020-05-22 15-59-04$GPGSV,2,2,6,26,29,204,066,31,35,245,061*46
2020-05-22 15-59-04$GPRMC,065143.77,A,0131.98334,N,00051.28969,E,0005.0,030.0,220520,0.0,W,A*1D
2020-05-22 15-59-04$GPVTG,030.0,T,030.0,M,0005.0,N,00009.3,K,A*1C
2020-05-22 15-59-04$GPZDA,065143.78,22,05,2020,0,0*69
2020-05-22 15-59-04$GPGGA,065144.90,0134.21363,S,04654.57099,E,1,6,0.0,4,M,50.0,M,0,0*51
2020-05-22 15-59-04$GPGLL,0134.21363,S,04654.57099,E,065144.88,A,A*74
2020-05-22 15-59-04$GPGSA,A,3,3,6,15,23,28,31,,,,,,,0.0,0.0,0.0*3A
2020-05-22 15-59-04$GPGSV,2,1,6,3,9,114,081,6,48,009,071,15,13,327,020,23,32,182,037*73
2020-05-22 15-59-04$GPGSV,2,2,6,28,55,014,069,31,14,010,083*42
2020-05-22 15-59-04$GPRMC,065144.89,A,0134.21363,S,04654.57099,E,0000.9,009.3,220520,0.0,W,A*0F
2020-05-22 15-59-04$GPVTG,009.3,T,009.3,M,0000.9,N,00001.7,K,A*1C
2020-05-22 15-59-04$GPZDA,065144.89,22,05,2020,0,0*60
2020-05-22 15-59-04$WIMTW,20.2,C*0D
2020-05-22 15-59-04$WIMWD,007.8,T,007.8,M,008.3,N,004.3,M*56
2020-05-22 15-59-04$WIMWV,007.8,R,008.3,N,A*27
2020-05-22 15-59-04$WIVWR,022.2,L,008.3,N,004.3,M,015.4,K*47
2020-05-22 15-59-04$WIVWT,022.2,L,008.3,N,004.3,M,015.4,K*41
2020-05-22 15-59-04$HCHDG,30.0,01.2,E,00.0,W*60
2020-05-22 15-59-04$HEHDM,31.2,M*1F
2020-05-22 15-59-04$HEHDT,30.0,T*1C
2020-05-22 15-59-04$HETHS,30.0,A*1E
2020-05-22 15-59-04$TIROT,00.0,A*0B
2020-05-22 15-59-04$WIMTW,20.0,C*0F
2020-05-22 15-59-04$WIMWD,000.0,T,000.0,M,000.0,N,000.0,M*5A
2020-05-22 15-59-04$WIMWV,000.0,T,000.0,N,A*25
2020-05-22 15-59-04$WIVWR,030.0,L,000.0,N,000.0,M,000.0,K*4A
2020-05-22 15-59-04$WIVWT,030.0,L,000.0,N,000.0,M,000.0,K*4C
2020-05-22 15-59-04$SDDBK,00.0,f,00.0,M,00.0,F*29
2020-05-22 15-59-04$SDDBS,00.0,f,00.0,M,00.0,F*31
2020-05-22 15-59-04$SDDBT,00.0,f,00.0,M,00.0,F*36
2020-05-22 15-59-04$SDDPT,0.0,0.0,*7B
2020-05-22 15-59-05!AIVDM,1,1,,A,1<5UJi@P099EHKIf@7G@G@B9250l,0*76
2020-05-22 15-59-05$VDVBW,00.0,00.0,A,00.0,00.0,A,00.0,A,00.0,A*51
2020-05-22 15-59-05$VWVHW,30.0,T,30.0,M,00.0,N,00.0,K*54
2020-05-22 15-59-05$VWVLW,0.000,N,0.000,N*4C
2020-05-22 15-59-05$VDVBW,04.0,02.0,A,02.0,00.0,A,02.0,A,02.0,A*55
2020-05-22 15-59-05$VWVHW,30.0,T,30.0,M,04.0,N,07.4,K*53
2020-05-22 15-59-05$VWVLW,68.991,N,67.991,N*43
2020-05-22 15-59-05$GPGGA,065144.78,0131.98454,N,00051.29038,E,1,6,0.0,1398,M,50.0,M,,*7C
2020-05-22 15-59-05$GPGLL,0131.98454,N,00051.29038,E,065144.77,A,A*68
2020-05-22 15-59-05$GPGSA,A,3,2,6,15,23,26,31,,,,,,,0.0,0.0,0.0*35
2020-05-22 15-59-05$GPGSV,2,1,6,2,38,033,050,6,33,260,025,15,7,015,029,23,15,128,022*77
2020-05-22 15-59-05$GPGSV,2,2,6,26,79,043,001,31,61,224,082*48
2020-05-22 15-59-05$GPRMC,065144.77,A,0131.98454,N,00051.29038,E,0005.0,030.0,220520,0.0,W,A*17
2020-05-22 15-59-05$GPVTG,030.0,T,030.0,M,0005.0,N,00009.3,K,A*1C
2020-05-22 15-59-05$GPZDA,065144.78,22,05,2020,0,0*6E
2020-05-22 15-59-05$GPGGA,065145.89,0134.21338,S,04654.57103,E,1,6,0.0,4,M,50.0,M,0,0*54
2020-05-22 15-59-05$GPGLL,0134.21338,S,04654.57103,E,065145.88,A,A*79
2020-05-22 15-59-05$GPGSA,A,3,3,6,15,23,28,31,,,,,,,0.0,0.0,0.0*3A
2020-05-22 15-59-05$GPGSV,2,1,6,3,66,249,081,6,8,222,087,15,1,145,093,23,5,240,021*74
2020-05-22 15-59-05$GPGSV,2,2,6,28,34,195,062,31,16,304,047*4A
2020-05-22 15-59-05$GPRMC,065145.88,A,0134.21338,S,04654.57103,E,0000.9,009.3,220520,0.0,W,A*03
2020-05-22 15-59-05$GPVTG,009.3,T,009.3,M,0000.9,N,00001.7,K,A*1C
2020-05-22 15-59-05$GPZDA,065145.89,22,05,2020,0,0*61
2020-05-22 15-59-05$WIMTW,20.2,C*0D
2020-05-22 15-59-05$WIMWD,004.6,T,004.6,M,008.2,N,004.2,M*56
2020-05-22 15-59-05$WIMWV,004.6,R,008.2,N,A*2B
2020-05-22 15-59-05$WIVWR,025.4,L,008.2,N,004.2,M,015.2,K*40
2020-05-22 15-59-05$WIVWT,025.4,L,008.2,N,004.2,M,015.2,K*46
2020-05-22 15-59-05$HCHDG,30.0,01.2,E,00.0,W*60
2020-05-22 15-59-05$HEHDM,31.2,M*1F
2020-05-22 15-59-05$HEHDT,30.0,T*1C
2020-05-22 15-59-05$HETHS,30.0,A*1E
2020-05-22 15-59-05$TIROT,00.0,A*0B
2020-05-22 15-59-05$WIMTW,20.0,C*0F
2020-05-22 15-59-05$WIMWD,000.0,T,000.0,M,000.0,N,000.0,M*5A
2020-05-22 15-59-05$WIMWV,000.0,T,000.0,N,A*25
2020-05-22 15-59-05$WIVWR,030.0,L,000.0,N,000.0,M,000.0,K*4A
2020-05-22 15-59-05$WIVWT,030.0,L,000.0,N,000.0,M,000.0,K*4C
2020-05-22 15-59-05$SDDBK,00.0,f,00.0,M,00.0,F*29
2020-05-22 15-59-05$SDDBS,00.0,f,00.0,M,00.0,F*31
2020-05-22 15-59-05$SDDBT,00.0,f,00.0,M,00.0,F*36
2020-05-22 15-59-05$SDDPT,0.0,0.0,*7B
2020-05-22 15-59-06!AIVDM,1,1,,A,1<5UJi@P099EHKKf@7H0G@B;250l,0*09
2020-05-22 15-59-06$VDVBW,00.0,00.0,A,00.0,00.0,A,00.0,A,00.0,A*51
2020-05-22 15-59-06$VWVHW,30.0,T,30.0,M,00.0,N,00.0,K*54
2020-05-22 15-59-06$VWVLW,0.000,N,0.000,N*4C
2020-05-22 15-59-06$VDVBW,04.0,02.0,A,02.0,00.0,A,02.0,A,02.0,A*55
2020-05-22 15-59-06$VWVHW,30.0,T,30.0,M,04.0,N,07.4,K*53
2020-05-22 15-59-06$VWVLW,68.992,N,67.992,N*43
2020-05-22 15-59-06$GPGGA,065145.78,0131.98574,N,00051.29107,E,1,6,0.0,1398,M,50.0,M,,*73
2020-05-22 15-59-06$GPGLL,0131.98574,N,00051.29107,E,065145.76,A,A*66
2020-05-22 15-59-06$GPGSA,A,3,2,6,15,23,26,31,,,,,,,0.0,0.0,0.0*35
2020-05-22 15-59-06$GPGSV,2,1,6,2,18,061,001,6,2,115,054,15,41,011,044,23,6,329,092*44
2020-05-22 15-59-06$GPGSV,2,2,6,26,6,262,061,31,5,307,075*4D
2020-05-22 15-59-06$GPRMC,065145.77,A,0131.98574,N,00051.29107,E,0005.0,030.0,220520,0.0,W,A*18
2020-05-22 15-59-06$GPVTG,030.0,T,030.0,M,0005.0,N,00009.3,K,A*1C
2020-05-22 15-59-06$GPZDA,065145.77,22,05,2020,0,0*60
2020-05-22 15-59-06$GPGGA,065146.89,0134.21313,S,04654.57107,E,1,6,0.0,4,M,50.0,M,0,0*5A
2020-05-22 15-59-06$GPGLL,0134.21313,S,04654.57107,E,065146.87,A,A*78
2020-05-22 15-59-06$GPGSA,A,3,3,6,15,23,28,31,,,,,,,0.0,0.0,0.0*3A
2020-05-22 15-59-06$GPGSV,2,1,6,3,18,313,074,6,80,195,007,15,4,231,083,23,41,181,005*72
2020-05-22 15-59-06$GPGSV,2,2,6,28,85,055,011,31,77,177,041*4E
2020-05-22 15-59-06$GPRMC,065146.87,A,0134.21313,S,04654.57107,E,0000.9,009.3,220520,0.0,W,A*02
2020-05-22 15-59-06$GPVTG,009.3,T,009.3,M,0000.9,N,00001.7,K,A*1C
2020-05-22 15-59-06$GPZDA,065146.89,22,05,2020,0,0*62
2020-05-22 15-59-06$WIMTW,20.2,C*0D
2020-05-22 15-59-06$WIMWD,006.5,T,006.5,M,008.1,N,004.2,M*55
2020-05-22 15-59-06$WIMWV,006.5,R,008.1,N,A*29
2020-05-22 15-59-06$WIVWR,023.5,L,008.1,N,004.2,M,015.0,K*46
2020-05-22 15-59-06$WIVWT,023.5,L,008.1,N,004.2,M,015.0,K*40
2020-05-22 15-59-06$HCHDG,30.0,01.2,E,00.0,W*60
2020-05-22 15-59-06$HEHDM,31.2,M*1F
2020-05-22 15-59-06$HEHDT,30.0,T*1C
2020-05-22 15-59-06$HETHS,30.0,A*1E
2020-05-22 15-59-06$TIROT,00.0,A*0B
2020-05-22 15-59-06$WIMTW,20.0,C*0F
2020-05-22 15-59-06$WIMWD,000.0,T,000.0,M,000.0,N,000.0,M*5A
2020-05-22 15-59-06$WIMWV,000.0,T,000.0,N,A*25
2020-05-22 15-59-06$WIVWR,030.0,L,000.0,N,000.0,M,000.0,K*4A
2020-05-22 15-59-06$WIVWT,030.0,L,000.0,N,000.0,M,000.0,K*4C
2020-05-22 15-59-06$SDDBK,00.0,f,00.0,M,00.0,F*29
2020-05-22 15-59-06$SDDBS,00.0,f,00.0,M,00.0,F*31
2020-05-22 15-59-06$SDDBT,00.0,f,00.0,M,00.0,F*36
2020-05-22 15-59-06$SDDPT,0.0,0.0,*7B
2020-05-22 15-59-07$VDVBW,00.0,00.0,A,00.0,00.0,A,00.0,A,00.0,A*51
2020-05-22 15-59-07$VWVHW,30.0,T,30.0,M,00.0,N,00.0,K*54
2020-05-22 15-59-07$VWVLW,0.000,N,0.000,N*4C
2020-05-22 15-59-07$VDVBW,04.0,02.0,A,02.0,00.0,A,02.0,A,02.0,A*55
2020-05-22 15-59-07$VWVHW,30.0,T,30.0,M,04.0,N,07.4,K*53
2020-05-22 15-59-07$VWVLW,68.993,N,67.993,N*43
2020-05-22 15-59-07$GPGGA,065146.78,0131.98694,N,00051.29176,E,1,6,0.0,1398,M,50.0,M,,*7B
2020-05-22 15-59-07$GPGLL,0131.98694,N,00051.29176,E,065146.76,A,A*6E
2020-05-22 15-59-07$GPGSA,A,3,2,6,15,23,26,31,,,,,,,0.0,0.0,0.0*35
2020-05-22 15-59-07$GPGSV,2,1,6,2,72,200,049,6,57,127,074,15,89,100,080,23,82,023,086*4F
2020-05-22 15-59-07$GPGSV,2,2,6,26,86,118,014,31,25,073,054*48
2020-05-22 15-59-07$GPRMC,065146.77,A,0131.98694,N,00051.29176,E,0005.0,030.0,220520,0.0,W,A*10
2020-05-22 15-59-07$GPVTG,030.0,T,030.0,M,0005.0,N,00009.3,K,A*1C
2020-05-22 15-59-07$GPZDA,065146.77,22,05,2020,0,0*63
2020-05-22 15-59-07$GPGGA,065147.90,0134.21288,S,04654.57111,E,1,6,0.0,4,M,50.0,M,0,0*57
2020-05-22 15-59-07$GPGLL,0134.21288,S,04654.57111,E,065147.88,A,A*72
2020-05-22 15-59-07$GPGSA,A,3,3,6,15,23,28,31,,,,,,,0.0,0.0,0.0*3A
2020-05-22 15-59-07$GPGSV,2,1,6,3,68,260,001,6,31,274,081,15,14,256,038,23,77,210,067*40
2020-05-22 15-59-07$GPGSV,2,2,6,28,44,042,087,31,79,119,037*4D
2020-05-22 15-59-07$GPRMC,065147.89,A,0134.21288,S,04654.57111,E,0000.9,009.3,220520,0.0,W,A*09
2020-05-22 15-59-07$GPVTG,009.3,T,009.3,M,0000.9,N,00001.7,K,A*1C
2020-05-22 15-59-07$GPZDA,065147.89,22,05,2020,0,0*63
2020-05-22 15-59-07$WIMTW,20.2,C*0D
2020-05-22 15-59-07$WIMWD,009.5,T,009.5,M,008.2,N,004.2,M*56
2020-05-22 15-59-07$WIMWV,009.5,R,008.2,N,A*25
2020-05-22 15-59-07$WIVWR,020.5,L,008.2,N,004.2,M,015.3,K*45
2020-05-22 15-59-07$WIVWT,020.5,L,008.2,N,004.2,M,015.3,K*43
2020-05-22 15-59-07$HCHDG,30.0,01.2,E,00.0,W*60
2020-05-22 15-59-07$HEHDM,31.2,M*1F
2020-05-22 15-59-07$HEHDT,30.0,T*1C
2020-05-22 15-59-07$HETHS,30.0,A*1E
2020-05-22 15-59-07$TIROT,00.0,A*0B
2020-05-22 15-59-07$WIMTW,20.0,C*0F
2020-05-22 15-59-07$WIMWD,000.0,T,000.0,M,000.0,N,000.0,M*5A
2020-05-22 15-59-07$WIMWV,000.0,T,000.0,N,A*25
2020-05-22 15-59-07$WIVWR,030.0,L,000.0,N,000.0,M,000.0,K*4A
2020-05-22 15-59-07$WIVWT,030.0,L,000.0,N,000.0,M,000.0,K*4C
2020-05-22 15-59-07$SDDBK,00.0,f,00.0,M,00.0,F*29
2020-05-22 15-59-07$SDDBS,00.0,f,00.0,M,00.0,F*31
2020-05-22 15-59-07$SDDBT,00.0,f,00.0,M,00.0,F*36
2020-05-22 15-59-07$SDDPT,0.0,0.0,*7B
2020-05-22 15-59-08!AIVDM,1,1,,A,1<5UJi@P099EHKMf@7I@G@B=250l,0*78
2020-05-22 15-59-08$VDVBW,00.0,00.0,A,00.0,00.0,A,00.0,A,00.0,A*51
2020-05-22 15-59-08$VWVHW,30.0,T,30.0,M,00.0,N,00.0,K*54
2020-05-22 15-59-08$VWVLW,0.000,N,0.000,N*4C
2020-05-22 15-59-08$VDVBW,04.0,02.0,A,02.0,00.0,A,02.0,A,02.0,A*55
2020-05-22 15-59-08$VWVHW,30.0,T,30.0,M,04.0,N,07.4,K*53
2020-05-22 15-59-08$VWVLW,68.993,N,67.993,N*43
2020-05-22 15-59-08$GPGGA,065147.78,0131.98814,N,00051.29245,E,1,6,0.0,1398,M,50.0,M,,*7F
2020-05-22 15-59-08$GPGLL,0131.98814,N,00051.29245,E,065147.76,A,A*6A
2020-05-22 15-59-08$GPGSA,A,3,2,6,15,23,26,31,,,,,,,0.0,0.0,0.0*35
2020-05-22 15-59-08$GPGSV,2,1,6,2,14,236,014,6,51,259,033,15,23,140,065,23,38,177,041*48
2020-05-22 15-59-08$GPGSV,2,2,6,26,8,273,080,31,4,214,052*4B
2020-05-22 15-59-08$GPRMC,065147.77,A,0131.98814,N,00051.29245,E,0005.0,030.0,220520,0.0,W,A*14
2020-05-22 15-59-08$GPVTG,030.0,T,030.0,M,0005.0,N,00009.3,K,A*1C
2020-05-22 15-59-08$GPZDA,065147.78,22,05,2020,0,0*6D
2020-05-22 15-59-08$GPGGA,065148.89,0134.21263,S,04654.57115,E,1,6,0.0,4,M,50.0,M,0,0*51
2020-05-22 15-59-08$GPGLL,0134.21263,S,04654.57115,E,065148.88,A,A*7C
2020-05-22 15-59-08$GPGSA,A,3,3,6,15,23,28,31,,,,,,,0.0,0.0,0.0*3A
2020-05-22 15-59-08$GPGSV,2,1,6,3,89,283,020,6,23,188,049,15,1,192,090,23,61,129,054*75
2020-05-22 15-59-08$GPGSV,2,2,6,28,40,293,070,31,51,152,007*49
2020-05-22 15-59-08$GPRMC,065148.88,A,0134.21263,S,04654.57115,E,0000.9,009.3,220520,0.0,W,A*06
2020-05-22 15-59-08$GPVTG,009.3,T,009.3,M,0000.9,N,00001.7,K,A*1C
2020-05-22 15-59-08$GPZDA,065148.89,22,05,2020,0,0*6C
2020-05-22 15-59-08$WIMTW,20.2,C*0D
2020-05-22 15-59-08$WIMWD,010.4,T,010.4,M,008.0,N,004.1,M*57
2020-05-22 15-59-08$WIMWV,010.4,R,008.0,N,A*2E
2020-05-22 15-59-08$WIVWR,019.6,L,008.0,N,004.1,M,014.9,K*46
2020-05-22 15-59-08$WIVWT,019.6,L,008.0,N,004.1,M,014.9,K*40
2020-05-22 15-59-08$HCHDG,30.0,01.2,E,00.0,W*60
2020-05-22 15-59-08$HEHDM,31.2,M*1F
2020-05-22 15-59-08$HEHDT,30.0,T*1C
2020-05-22 15-59-08$HETHS,30.0,A*1E
2020-05-22 15-59-08$TIROT,00.0,A*0B
2020-05-22 15-59-08$WIMTW,20.0,C*0F
2020-05-22 15-59-08$WIMWD,000.0,T,000.0,M,000.0,N,000.0,M*5A
2020-05-22 15-59-08$WIMWV,000.0,T,000.0,N,A*25
2020-05-22 15-59-08$WIVWR,030.0,L,000.0,N,000.0,M,000.0,K*4A
2020-05-22 15-59-08$WIVWT,030.0,L,000.0,N,000.0,M,000.0,K*4C
2020-05-22 15-59-08$SDDBK,00.0,f,00.0,M,00.0,F*29
2020-05-22 15-59-08$SDDBS,00.0,f,00.0,M,00.0,F*31
2020-05-22 15-59-08$SDDBT,00.0,f,00.0,M,00.0,F*36
2020-05-22 15-59-08$SDDPT,0.0,0.0,*7B
2020-05-22 15-59-09!AIVDM,1,1,,A,1<5UJi@P099EHKMf@7IhG@BA250l,0*2C
2020-05-22 15-59-09$VDVBW,00.0,00.0,A,00.0,00.0,A,00.0,A,00.0,A*51
2020-05-22 15-59-09$VWVHW,30.0,T,30.0,M,00.0,N,00.0,K*54
2020-05-22 15-59-09$VWVLW,0.000,N,0.000,N*4C
2020-05-22 15-59-09$VDVBW,04.0,02.0,A,02.0,00.0,A,02.0,A,02.0,A*55
2020-05-22 15-59-09$VWVHW,30.0,T,30.0,M,04.0,N,07.4,K*53
2020-05-22 15-59-09$VWVLW,68.994,N,67.994,N*43
2020-05-22 15-59-09$GPGGA,065148.79,0131.98934,N,00051.29314,E,1,6,0.0,1398,M,50.0,M,,*77
2020-05-22 15-59-09$GPGLL,0131.98934,N,00051.29314,E,065148.77,A,A*62
2020-05-22 15-59-09$GPGSA,A,3,2,6,15,23,26,31,,,,,,,0.0,0.0,0.0*35
2020-05-22 15-59-09$GPGSV,2,1,6,2,56,115,063,6,35,352,076,15,88,006,056,23,47,201,095*44
2020-05-22 15-59-09$GPGSV,2,2,6,26,68,088,059,31,35,279,079*4F
2020-05-22 15-59-09$GPRMC,065148.78,A,0131.98934,N,00051.29314,E,0005.0,030.0,220520,0.0,W,A*12
2020-05-22 15-59-09$GPVTG,030.0,T,030.0,M,0005.0,N,00009.3,K,A*1C
2020-05-22 15-59-09$GPZDA,065148.78,22,05,2020,0,0*62
2020-05-22 15-59-09$GPGGA,065149.90,0134.21238,S,04654.57119,E,1,6,0.0,4,M,50.0,M,0,0*5A
2020-05-22 15-59-09$GPGLL,0134.21238,S,04654.57119,E,065149.89,A,A*7E
2020-05-22 15-59-09$GPGSA,A,3,3,6,15,23,28,31,,,,,,,0.0,0.0,0.0*3A
2020-05-22 15-59-09$GPGSV,2,1,6,3,22,353,067,6,34,085,075,15,78,230,003,23,6,012,023*79
2020-05-22 15-59-09$GPGSV,2,2,6,28,34,341,045,31,62,064,015*45
2020-05-22 15-59-09$GPRMC,065149.89,A,0134.21238,S,04654.57119,E,0000.9,009.3,220520,0.0,W,A*04
2020-05-22 15-59-09$GPVTG,009.3,T,009.3,M,0000.9,N,00001.7,K,A*1C
2020-05-22 15-59-09$GPZDA,065149.90,22,05,2020,0,0*65
2020-05-22 15-59-09$WIMTW,20.2,C*0D
2020-05-22 15-59-09$WIMWD,007.9,T,007.9,M,007.8,N,004.0,M*51
2020-05-22 15-59-09$WIMWV,007.9,R,007.8,N,A*22
2020-05-22 15-59-09$WIVWR,022.1,L,007.8,N,004.0,M,014.4,K*42
2020-05-22 15-59-09$WIVWT,022.1,L,007.8,N,004.0,M,014.4,K*44
2020-05-22 15-59-09$HCHDG,30.0,01.2,E,00.0,W*60
2020-05-22 15-59-09$HEHDM,31.2,M*1F
2020-05-22 15-59-09$HEHDT,30.0,T*1C
2020-05-22 15-59-09$HETHS,30.0,A*1E
2020-05-22 15-59-09$TIROT,00.0,A*0B
2020-05-22 15-59-09$WIMTW,20.0,C*0F
2020-05-22 15-59-09$WIMWD,000.0,T,000.0,M,000.0,N,000.0,M*5A
2020-05-22 15-59-09$WIMWV,000.0,T,000.0,N,A*25
2020-05-22 15-59-09$WIVWR,030.0,L,000.0,N,000.0,M,000.0,K*4A
2020-05-22 15-59-09$WIVWT,030.0,L,000.0,N,000.0,M,000.0,K*4C
2020-05-22 15-59-10$SDDBK,00.0,f,00.0,M,00.0,F*29
2020-05-22 15-59-10$SDDBS,00.0,f,00.0,M,00.0,F*31
2020-05-22 15-59-10$SDDBT,00.0,f,00.0,M,00.0,F*36
2020-05-22 15-59-10$SDDPT,0.0,0.0,*7B
2020-05-22 15-59-10!AIVDM,1,1,,A,1<5UJi@P099EHKOf@7JPG@BC250l,0*17
2020-05-22 15-59-10$VDVBW,00.0,00.0,A,00.0,00.0,A,00.0,A,00.0,A*51
2020-05-22 15-59-10$VWVHW,30.0,T,30.0,M,00.0,N,00.0,K*54
2020-05-22 15-59-10$VWVLW,0.000,N,0.000,N*4C
2020-05-22 15-59-10$VDVBW,04.0,02.0,A,02.0,00.0,A,02.0,A,02.0,A*55
2020-05-22 15-59-10$VWVHW,30.0,T,30.0,M,04.0,N,07.4,K*53
2020-05-22 15-59-10$VWVLW,68.994,N,67.994,N*43
2020-05-22 15-59-10$GPGGA,065149.78,0131.99054,N,00051.29383,E,1,6,0.0,1398,M,50.0,M,,*77
2020-05-22 15-59-10$GPGLL,0131.99054,N,00051.29383,E,065149.76,A,A*62
2020-05-22 15-59-10$GPGSA,A,3,2,6,15,23,26,31,,,,,,,0.0,0.0,0.0*35
2020-05-22 15-59-10$GPGSV,2,1,6,2,3,201,041,6,33,228,078,15,56,133,008,23,35,138,049*74
2020-05-22 15-59-10$GPGSV,2,2,6,26,4,074,013,31,74,238,029*7D
2020-05-22 15-59-10$GPRMC,065149.77,A,0131.99054,N,00051.29383,E,0005.0,030.0,220520,0.0,W,A*1C
2020-05-22 15-59-10$GPVTG,030.0,T,030.0,M,0005.0,N,00009.3,K,A*1C
2020-05-22 15-59-10$GPZDA,065149.77,22,05,2020,0,0*6C
2020-05-22 15-59-10$GPGGA,065150.89,0134.21213,S,04654.57123,E,1,6,0.0,4,M,50.0,M,0,0*5A
2020-05-22 15-59-10$GPGLL,0134.21213,S,04654.57123,E,065150.86,A,A*79
2020-05-22 15-59-10$GPGSA,A,3,3,6,15,23,28,31,,,,,,,0.0,0.0,0.0*3A
2020-05-22 15-59-10$GPGSV,2,1,6,3,60,152,042,6,74,116,022,15,45,125,082,23,42,298,025*40
2020-05-22 15-59-10$GPGSV,2,2,6,28,9,217,024,31,43,062,002*7D
2020-05-22 15-59-10$GPRMC,065150.87,A,0134.21213,S,04654.57123,E,0000.9,009.3,220520,0.0,W,A*02
2020-05-22 15-59-10$GPVTG,009.3,T,009.3,M,0000.9,N,00001.7,K,A*1C
2020-05-22 15-59-10$GPZDA,065150.87,22,05,2020,0,0*6B
2020-05-22 15-59-10$WIMTW,20.2,C*0D
2020-05-22 15-59-10$WIMWD,005.4,T,005.4,M,007.8,N,004.0,M*51
2020-05-22 15-59-10$WIMWV,005.4,R,007.8,N,A*2D
2020-05-22 15-59-10$WIVWR,024.6,L,007.8,N,004.0,M,014.5,K*42
2020-05-22 15-59-10$WIVWT,024.6,L,007.8,N,004.0,M,014.5,K*44
2020-05-22 15-59-10$HCHDG,30.0,01.2,E,00.0,W*60
2020-05-22 15-59-10$HEHDM,31.2,M*1F
2020-05-22 15-59-10$HEHDT,30.0,T*1C
2020-05-22 15-59-10$HETHS,30.0,A*1E
2020-05-22 15-59-10$TIROT,00.0,A*0B
2020-05-22 15-59-10$WIMTW,20.0,C*0F
2020-05-22 15-59-10$WIMWD,000.0,T,000.0,M,000.0,N,000.0,M*5A
2020-05-22 15-59-10$WIMWV,000.0,T,000.0,N,A*25
2020-05-22 15-59-10$WIVWR,030.0,L,000.0,N,000.0,M,000.0,K*4A
2020-05-22 15-59-10$WIVWT,030.0,L,000.0,N,000.0,M,000.0,K*4C
2020-05-22 15-59-11$SDDBK,00.0,f,00.0,M,00.0,F*29
2020-05-22 15-59-11$SDDBS,00.0,f,00.0,M,00.0,F*31
2020-05-22 15-59-11$SDDBT,00.0,f,00.0,M,00.0,F*36
2020-05-22 15-59-11$SDDPT,0.0,0.0,*7B
2020-05-22 15-59-11!AIVDM,1,1,,A,1<5UJi@P099EHKOf@7K0G@BE250l,0*70
2020-05-22 15-59-11$VDVBW,00.0,00.0,A,00.0,00.0,A,00.0,A,00.0,A*51
2020-05-22 15-59-11$VWVHW,30.0,T,30.0,M,00.0,N,00.0,K*54
2020-05-22 15-59-11$VWVLW,0.000,N,0.000,N*4C
2020-05-22 15-59-11$VDVBW,04.0,02.0,A,02.0,00.0,A,02.0,A,02.0,A*55
2020-05-22 15-59-11$VWVHW,30.0,T,30.0,M,04.0,N,07.4,K*53
2020-05-22 15-59-11$VWVLW,68.995,N,67.995,N*43
2020-05-22 15-59-11$GPGGA,065150.78,0131.99174,N,00051.29452,E,1,6,0.0,1398,M,50.0,M,,*77
2020-05-22 15-59-11$GPGLL,0131.99174,N,00051.29452,E,065150.76,A,A*62
2020-05-22 15-59-11$GPGSA,A,3,2,6,15,23,26,31,,,,,,,0.0,0.0,0.0*35
2020-05-22 15-59-11$GPGSV,2,1,6,2,77,222,087,6,80,086,043,15,68,031,034,23,45,322,078*47
2020-05-22 15-59-11$GPGSV,2,2,6,26,63,104,098,31,20,354,069*47
2020-05-22 15-59-11$GPRMC,065150.77,A,0131.99174,N,00051.29452,E,0005.0,030.0,220520,0.0,W,A*1C
2020-05-22 15-59-11$GPVTG,030.0,T,030.0,M,0005.0,N,00009.3,K,A*1C
2020-05-22 15-59-11$GPZDA,065150.77,22,05,2020,0,0*64
2020-05-22 15-59-11$GPGGA,065151.90,0134.21188,S,04654.57127,E,1,6,0.0,4,M,50.0,M,0,0*56
2020-05-22 15-59-11$GPGLL,0134.21188,S,04654.57127,E,065151.88,A,A*73
2020-05-22 15-59-11$GPGSA,A,3,3,6,15,23,28,31,,,,,,,0.0,0.0,0.0*3A
2020-05-22 15-59-11$GPGSV,2,1,6,3,51,096,073,6,27,155,046,15,4,287,015,23,47,001,046*78
2020-05-22 15-59-11$GPGSV,2,2,6,28,22,346,022,31,70,110,064*43
2020-05-22 15-59-11$GPRMC,065151.89,A,0134.21188,S,04654.57127,E,0000.9,009.3,220520,0.0,W,A*08
2020-05-22 15-59-11$GPVTG,009.3,T,009.3,M,0000.9,N,00001.7,K,A*1C
2020-05-22 15-59-11$GPZDA,065151.90,22,05,2020,0,0*6C
2020-05-22 15-59-11$WIMTW,20.2,C*0D
2020-05-22 15-59-11$WIMWD,006.6,T,006.6,M,008.2,N,004.2,M*56
2020-05-22 15-59-11$WIMWV,006.6,R,008.2,N,A*29
2020-05-22 15-59-11$WIVWR,023.4,L,008.2,N,004.2,M,015.2,K*46
2020-05-22 15-59-11$WIVWT,023.4,L,008.2,N,004.2,M,015.2,K*40
2020-05-22 15-59-11$HCHDG,30.0,01.2,E,00.0,W*60
2020-05-22 15-59-11$HEHDM,31.2,M*1F
2020-05-22 15-59-11$HEHDT,30.0,T*1C
2020-05-22 15-59-11$HETHS,30.0,A*1E
2020-05-22 15-59-11$TIROT,00.0,A*0B
2020-05-22 15-59-11$WIMTW,20.0,C*0F
2020-05-22 15-59-11$WIMWD,000.0,T,000.0,M,000.0,N,000.0,M*5A
2020-05-22 15-59-11$WIMWV,000.0,T,000.0,N,A*25
2020-05-22 15-59-11$WIVWR,030.0,L,000.0,N,000.0,M,000.0,K*4A
2020-05-22 15-59-11$WIVWT,030.0,L,000.0,N,000.0,M,000.0,K*4C
2020-05-22 15-59-12$SDDBK,00.0,f,00.0,M,00.0,F*29
2020-05-22 15-59-12$SDDBS,00.0,f,00.0,M,00.0,F*31
2020-05-22 15-59-12$SDDBT,00.0,f,00.0,M,00.0,F*36
2020-05-22 15-59-12$SDDPT,0.0,0.0,*7B
2020-05-22 15-59-12!AIVDM,1,1,,A,1<5UJi@P099EHKQf@7KhG@BG250l,0*34
2020-05-22 15-59-12$VDVBW,00.0,00.0,A,00.0,00.0,A,00.0,A,00.0,A*51
2020-05-22 15-59-12$VWVHW,30.0,T,30.0,M,00.0,N,00.0,K*54
2020-05-22 15-59-12$VWVLW,0.000,N,0.000,N*4C
2020-05-22 15-59-12$VDVBW,04.0,02.0,A,02.0,00.0,A,02.0,A,02.0,A*55
2020-05-22 15-59-12$VWVHW,30.0,T,30.0,M,04.0,N,07.4,K*53
2020-05-22 15-59-12$VWVLW,68.995,N,67.995,N*43
2020-05-22 15-59-12$GPGGA,065151.78,0131.99294,N,00051.29521,E,1,6,0.0,1398,M,50.0,M,,*7E
2020-05-22 15-59-12$GPGLL,0131.99294,N,00051.29521,E,065151.76,A,A*6B
2020-05-22 15-59-12$GPGSA,A,3,2,6,15,23,26,31,,,,,,,0.0,0.0,0.0*35
2020-05-22 15-59-12$GPGSV,2,1,6,2,1,322,023,6,51,031,035,15,65,354,014,23,36,004,074*78
2020-05-22 15-59-12$GPGSV,2,2,6,26,57,322,035,31,90,095,017*4D
2020-05-22 15-59-12$GPRMC,065151.77,A,0131.99294,N,00051.29521,E,0005.0,030.0,220520,0.0,W,A*15
2020-05-22 15-59-12$GPVTG,030.0,T,030.0,M,0005.0,N,00009.3,K,A*1C
2020-05-22 15-59-12$GPZDA,065151.77,22,05,2020,0,0*65
2020-05-22 15-59-12$GPGGA,065152.89,0134.21163,S,04654.57131,E,1,6,0.0,4,M,50.0,M,0,0*5F
2020-05-22 15-59-12$GPGLL,0134.21163,S,04654.57131,E,065152.88,A,A*72
2020-05-22 15-59-12$GPGSA,A,3,3,6,15,23,28,31,,,,,,,0.0,0.0,0.0*3A
2020-05-22 15-59-12$GPGSV,2,1,6,3,35,286,082,6,43,200,049,15,35,250,083,23,22,123,077*4E
2020-05-22 15-59-12$GPGSV,2,2,6,28,48,260,078,31,43,128,053*4A
2020-05-22 15-59-12$GPRMC,065152.88,A,0134.21163,S,04654.57131,E,0000.9,009.3,220520,0.0,W,A*08
2020-05-22 15-59-12$GPVTG,009.3,T,009.3,M,0000.9,N,00001.7,K,A*1C
2020-05-22 15-59-12$GPZDA,065152.88,22,05,2020,0,0*66
2020-05-22 15-59-12$WIMTW,20.2,C*0D
2020-05-22 15-59-12$WIMWD,010.5,T,010.5,M,008.1,N,004.2,M*55
2020-05-22 15-59-12$WIMWV,010.5,R,008.1,N,A*2E
2020-05-22 15-59-12$WIVWR,019.5,L,008.1,N,004.2,M,015.1,K*4E
2020-05-22 15-59-12$WIVWT,019.5,L,008.1,N,004.2,M,015.1,K*48
2020-05-22 15-59-12$HCHDG,30.0,01.2,E,00.0,W*60
2020-05-22 15-59-12$HEHDM,31.2,M*1F
2020-05-22 15-59-12$HEHDT,30.0,T*1C
2020-05-22 15-59-12$HETHS,30.0,A*1E
2020-05-22 15-59-12$TIROT,00.0,A*0B
2020-05-22 15-59-12$WIMTW,20.0,C*0F
2020-05-22 15-59-12$WIMWD,000.0,T,000.0,M,000.0,N,000.0,M*5A
2020-05-22 15-59-12$WIMWV,000.0,T,000.0,N,A*25
2020-05-22 15-59-12$WIVWR,030.0,L,000.0,N,000.0,M,000.0,K*4A
2020-05-22 15-59-12$WIVWT,030.0,L,000.0,N,000.0,M,000.0,K*4C
2020-05-22 15-59-13$SDDBK,00.0,f,00.0,M,00.0,F*29
2020-05-22 15-59-13$SDDBS,00.0,f,00.0,M,00.0,F*31
2020-05-22 15-59-13$SDDBT,00.0,f,00.0,M,00.0,F*36
2020-05-22 15-59-13$SDDPT,0.0,0.0,*7B
2020-05-22 15-59-13!AIVDM,1,1,,A,1<5UJi@P099EHKQf@7L@G@BI250l,0*15
2020-05-22 15-59-13$VDVBW,00.0,00.0,A,00.0,00.0,A,00.0,A,00.0,A*51
2020-05-22 15-59-13$VWVHW,30.0,T,30.0,M,00.0,N,00.0,K*54
2020-05-22 15-59-13$VWVLW,0.000,N,0.000,N*4C
2020-05-22 15-59-13$VDVBW,04.0,02.0,A,02.0,00.0,A,02.0,A,02.0,A*55
2020-05-22 15-59-13$VWVHW,30.0,T,30.0,M,04.0,N,07.4,K*53
2020-05-22 15-59-13$VWVLW,68.996,N,67.996,N*43
2020-05-22 15-59-13$GPGGA,065152.79,0131.99414,N,00051.29590,E,1,6,0.0,1398,M,50.0,M,,*78
2020-05-22 15-59-13$GPGLL,0131.99414,N,00051.29590,E,065152.76,A,A*6C
2020-05-22 15-59-13$GPGSA,A,3,2,6,15,23,26,31,,,,,,,0.0,0.0,0.0*35
2020-05-22 15-59-13$GPGSV,2,1,6,2,61,290,045,6,25,176,096,15,67,090,052,23,68,008,039*4B
2020-05-22 15-59-13$GPGSV,2,2,6,26,21,081,069,31,62,281,029*48
2020-05-22 15-59-13$GPRMC,065152.78,A,0131.99414,N,00051.29590,E,0005.0,030.0,220520,0.0,W,A*1D
2020-05-22 15-59-13$GPVTG,030.0,T,030.0,M,0005.0,N,00009.3,K,A*1C
2020-05-22 15-59-13$GPZDA,065152.78,22,05,2020,0,0*69
2020-05-22 15-59-13$GPGGA,065153.90,0134.21138,S,04654.57135,E,1,6,0.0,4,M,50.0,M,0,0*5C
2020-05-22 15-59-13$GPGLL,0134.21138,S,04654.57135,E,065153.89,A,A*78
2020-05-22 15-59-13$GPGSA,A,3,3,6,15,23,28,31,,,,,,,0.0,0.0,0.0*3A
2020-05-22 15-59-13$GPGSV,2,1,6,3,80,336,039,6,49,041,031,15,77,195,097,23,84,236,092*41
2020-05-22 15-59-13$GPGSV,2,2,6,28,88,075,079,31,71,129,033*47
2020-05-22 15-59-13$GPRMC,065153.89,A,0134.21138,S,04654.57135,E,0000.9,009.3,220520,0.0,W,A*02
2020-05-22 15-59-13$GPVTG,009.3,T,009.3,M,0000.9,N,00001.7,K,A*1C
2020-05-22 15-59-13$GPZDA,065153.90,22,05,2020,0,0*6E
2020-05-22 15-59-13$WIMTW,20.2,C*0D
2020-05-22 15-59-13$WIMWD,010.0,T,010.0,M,007.9,N,004.1,M*51
2020-05-22 15-59-13$WIMWV,010.0,R,007.9,N,A*2C
2020-05-22 15-59-13$WIVWR,020.0,L,007.9,N,004.1,M,014.6,K*43
2020-05-22 15-59-13$WIVWT,020.0,L,007.9,N,004.1,M,014.6,K*45
2020-05-22 15-59-13$HCHDG,30.0,01.2,E,00.0,W*60
2020-05-22 15-59-13$HEHDM,31.2,M*1F
2020-05-22 15-59-13$HEHDT,30.0,T*1C
2020-05-22 15-59-13$HETHS,30.0,A*1E
2020-05-22 15-59-13$TIROT,00.0,A*0B
2020-05-22 15-59-13$WIMTW,20.0,C*0F
2020-05-22 15-59-13$WIMWD,000.0,T,000.0,M,000.0,N,000.0,M*5A
2020-05-22 15-59-13$WIMWV,000.0,T,000.0,N,A*25
2020-05-22 15-59-13$WIVWR,030.0,L,000.0,N,000.0,M,000.0,K*4A
2020-05-22 15-59-13$WIVWT,030.0,L,000.0,N,000.0,M,000.0,K*4C
2020-05-22 15-59-14$SDDBK,00.0,f,00.0,M,00.0,F*29
2020-05-22 15-59-14$SDDBS,00.0,f,00.0,M,00.0,F*31
2020-05-22 15-59-14$SDDBT,00.0,f,00.0,M,00.0,F*36
2020-05-22 15-59-14$SDDPT,0.0,0.0,*7B
2020-05-22 15-59-14!AIVDM,1,1,,A,1<5UJi@P099EHKSf@7MPG@BK250l,0*04
2020-05-22 15-59-14$VDVBW,00.0,00.0,A,00.0,00.0,A,00.0,A,00.0,A*51
2020-05-22 15-59-14$VWVHW,30.0,T,30.0,M,00.0,N,00.0,K*54
2020-05-22 15-59-14$VWVLW,0.000,N,0.000,N*4C
2020-05-22 15-59-14$VDVBW,04.0,02.0,A,02.0,00.0,A,02.0,A,02.0,A*55
2020-05-22 15-59-14$VWVHW,30.0,T,30.0,M,04.0,N,07.4,K*53
2020-05-22 15-59-14$VWVLW,68.996,N,67.996,N*43
2020-05-22 15-59-14$GPGGA,065153.78,0131.99534,N,00051.29659,E,1,6,0.0,1398,M,50.0,M,,*7D
2020-05-22 15-59-14$GPGLL,0131.99534,N,00051.29659,E,065153.77,A,A*69
2020-05-22 15-59-14$GPGSA,A,3,2,6,15,23,26,31,,,,,,,0.0,0.0,0.0*35
2020-05-22 15-59-14$GPGSV,2,1,6,2,90,221,067,6,9,008,006,15,84,135,056,23,75,185,090*7C
2020-05-22 15-59-14$GPGSV,2,2,6,26,86,203,002,31,22,340,002*41
2020-05-22 15-59-14$GPRMC,065153.77,A,0131.99534,N,00051.29659,E,0005.0,030.0,220520,0.0,W,A*16
2020-05-22 15-59-14$GPVTG,030.0,T,030.0,M,0005.0,N,00009.3,K,A*1C
2020-05-22 15-59-14$GPZDA,065153.78,22,05,2020,0,0*68
2020-05-22 15-59-14$GPGGA,065154.89,0134.21113,S,04654.57139,E,1,6,0.0,4,M,50.0,M,0,0*56
2020-05-22 15-59-14$GPGLL,0134.21113,S,04654.57139,E,065154.88,A,A*7B
2020-05-22 15-59-14$GPGSA,A,3,3,6,15,23,28,31,,,,,,,0.0,0.0,0.0*3A
2020-05-22 15-59-14$GPGSV,2,1,6,3,54,242,080,6,85,142,090,15,12,124,035,23,18,092,034*45
2020-05-22 15-59-14$GPGSV,2,2,6,28,64,270,009,31,25,051,017*4C
2020-05-22 15-59-14$GPRMC,065154.88,A,0134.21113,S,04654.57139,E,0000.9,009.3,220520,0.0,W,A*01
2020-05-22 15-59-14$GPVTG,009.3,T,009.3,M,0000.9,N,00001.7,K,A*1C
2020-05-22 15-59-14$GPZDA,065154.89,22,05,2020,0,0*61
2020-05-22 15-59-14$WIMTW,20.2,C*0D
2020-05-22 15-59-14$WIMWD,008.6,T,008.6,M,007.9,N,004.1,M*51
2020-05-22 15-59-14$WIMWV,008.6,R,007.9,N,A*23
2020-05-22 15-59-14$WIVWR,021.4,L,007.9,N,004.1,M,014.6,K*46
2020-05-22 15-59-14$WIVWT,021.4,L,007.9,N,004.1,M,014.6,K*40
2020-05-22 15-59-14$HCHDG,30.0,01.2,E,00.0,W*60
2020-05-22 15-59-14$HEHDM,31.2,M*1F
2020-05-22 15-59-14$HEHDT,30.0,T*1C
2020-05-22 15-59-14$HETHS,30.0,A*1E
2020-05-22 15-59-14$TIROT,00.0,A*0B
2020-05-22 15-59-14$WIMTW,20.0,C*0F
2020-05-22 15-59-14$WIMWD,000.0,T,000.0,M,000.0,N,000.0,M*5A
2020-05-22 15-59-14$WIMWV,000.0,T,000.0,N,A*25
2020-05-22 15-59-14$WIVWR,030.0,L,000.0,N,000.0,M,000.0,K*4A
2020-05-22 15-59-14$WIVWT,030.0,L,000.0,N,000.0,M,000.0,K*4C
2020-05-22 15-59-15$SDDBK,00.0,f,00.0,M,00.0,F*29
2020-05-22 15-59-15$SDDBS,00.0,f,00.0,M,00.0,F*31
2020-05-22 15-59-15$SDDBT,00.0,f,00.0,M,00.0,F*36
2020-05-22 15-59-15$SDDPT,0.0,0.0,*7B
2020-05-22 15-59-15!AIVDM,1,1,,A,1<5UJi@P099EHKUf@7N@G@BM250l,0*17
2020-05-22 15-59-15$VDVBW,00.0,00.0,A,00.0,00.0,A,00.0,A,00.0,A*51
2020-05-22 15-59-15$VWVHW,30.0,T,30.0,M,00.0,N,00.0,K*54
2020-05-22 15-59-15$VWVLW,0.000,N,0.000,N*4C
2020-05-22 15-59-15$VDVBW,04.0,02.0,A,02.0,00.0,A,02.0,A,02.0,A*55
2020-05-22 15-59-15$VWVHW,30.0,T,30.0,M,04.0,N,07.4,K*53
2020-05-22 15-59-15$VWVLW,68.997,N,67.997,N*43
2020-05-22 15-59-15$GPGGA,065154.77,0131.99654,N,00051.29728,E,1,6,0.0,1398,M,50.0,M,,*77
2020-05-22 15-59-15$GPGLL,0131.99654,N,00051.29728,E,065154.76,A,A*6D
2020-05-22 15-59-15$GPGSA,A,3,2,6,15,23,26,31,,,,,,,0.0,0.0,0.0*35
2020-05-22 15-59-15$GPGSV,2,1,6,2,21,044,061,6,66,349,063,15,34,054,055,23,62,208,022*4A
2020-05-22 15-59-15$GPGSV,2,2,6,26,51,328,068,31,25,155,069*43
2020-05-22 15-59-15$GPRMC,065154.77,A,0131.99654,N,00051.29728,E,0005.0,030.0,220520,0.0,W,A*13
2020-05-22 15-59-15$GPVTG,030.0,T,030.0,M,0005.0,N,00009.3,K,A*1C
2020-05-22 15-59-15$GPZDA,065154.77,22,05,2020,0,0*60
2020-05-22 15-59-15$GPGGA,065155.89,0134.21088,S,04654.57143,E,1,6,0.0,4,M,50.0,M,0,0*59
2020-05-22 15-59-15$GPGLL,0134.21088,S,04654.57143,E,065155.87,A,A*7B
2020-05-22 15-59-15$GPGSA,A,3,3,6,15,23,28,31,,,,,,,0.0,0.0,0.0*3A
2020-05-22 15-59-15$GPGSV,2,1,6,3,64,092,078,6,53,197,044,15,71,051,061,23,70,097,076*4E
2020-05-22 15-59-15$GPGSV,2,2,6,28,30,093,090,31,67,115,009*4A
2020-05-22 15-59-15$GPRMC,065155.87,A,0134.21088,S,04654.57143,E,0000.9,009.3,220520,0.0,W,A*01
2020-05-22 15-59-15$GPVTG,009.3,T,009.3,M,0000.9,N,00001.7,K,A*1C
2020-05-22 15-59-15$GPZDA,065155.89,22,05,2020,0,0*60
2020-05-22 15-59-15$WIMTW,20.2,C*0D
2020-05-22 15-59-15$WIMWD,008.9,T,008.9,M,008.0,N,004.1,M*57
2020-05-22 15-59-15$WIMWV,008.9,R,008.0,N,A*2A
2020-05-22 15-59-15$WIVWR,021.1,L,008.0,N,004.1,M,014.7,K*44
2020-05-22 15-59-15$WIVWT,021.1,L,008.0,N,004.1,M,014.7,K*42
2020-05-22 15-59-15$HCHDG,30.0,01.2,E,00.0,W*60
2020-05-22 15-59-15$HEHDM,31.2,M*1F
2020-05-22 15-59-15$HEHDT,30.0,T*1C
2020-05-22 15-59-15$HETHS,30.0,A*1E
2020-05-22 15-59-15$TIROT,00.0,A*0B
2020-05-22 15-59-15$WIMTW,20.0,C*0F
2020-05-22 15-59-15$WIMWD,000.0,T,000.0,M,000.0,N,000.0,M*5A
2020-05-22 15-59-15$WIMWV,000.0,T,000.0,N,A*25
2020-05-22 15-59-15$WIVWR,030.0,L,000.0,N,000.0,M,000.0,K*4A
2020-05-22 15-59-15$WIVWT,030.0,L,000.0,N,000.0,M,000.0,K*4C
2020-05-22 15-59-16$SDDBK,00.0,f,00.0,M,00.0,F*29
2020-05-22 15-59-16$SDDBS,00.0,f,00.0,M,00.0,F*31
2020-05-22 15-59-16$SDDBT,00.0,f,00.0,M,00.0,F*36
2020-05-22 15-59-16$SDDPT,0.0,0.0,*7B
2020-05-22 15-59-16!AIVDM,1,1,,A,1<5UJi@P099EHKUf@7NhG@BQ250l,0*23
2020-05-22 15-59-16$VDVBW,00.0,00.0,A,00.0,00.0,A,00.0,A,00.0,A*51
2020-05-22 15-59-16$VWVHW,30.0,T,30.0,M,00.0,N,00.0,K*54
2020-05-22 15-59-16$VWVLW,0.000,N,0.000,N*4C
2020-05-22 15-59-16$VDVBW,04.0,02.0,A,02.0,00.0,A,02.0,A,02.0,A*55
2020-05-22 15-59-16$VWVHW,30.0,T,30.0,M,04.0,N,07.4,K*53
2020-05-22 15-59-16$VWVLW,68.999,N,67.999,N*43
2020-05-22 15-59-16$GPGGA,065155.77,0131.99774,N,00051.29797,E,1,6,0.0,1398,M,50.0,M,,*71
2020-05-22 15-59-16$GPGLL,0131.99774,N,00051.29797,E,065155.76,A,A*6B
2020-05-22 15-59-16$GPGSA,A,3,2,6,15,23,26,31,,,,,,,0.0,0.0,0.0*35
2020-05-22 15-59-16$GPGSV,2,1,6,2,5,152,086,6,69,266,090,15,10,166,000,23,27,148,045*7D
2020-05-22 15-59-16$GPGSV,2,2,6,26,9,329,027,31,55,148,001*71
2020-05-22 15-59-16$GPRMC,065155.77,A,0131.99774,N,00051.29797,E,0005.0,030.0,220520,0.0,W,A*15
2020-05-22 15-59-16$GPVTG,030.0,T,030.0,M,0005.0,N,00009.3,K,A*1C
2020-05-22 15-59-16$GPZDA,065155.77,22,05,2020,0,0*61
2020-05-22 15-59-16$GPGGA,065156.90,0134.21063,S,04654.57147,E,1,6,0.0,4,M,50.0,M,0,0*53
2020-05-22 15-59-16$GPGLL,0134.21063,S,04654.57147,E,065156.89,A,A*77
2020-05-22 15-59-16$GPGSA,A,3,3,6,15,23,28,31,,,,,,,0.0,0.0,0.0*3A
2020-05-22 15-59-16$GPGSV,2,1,6,3,22,181,015,6,81,317,004,15,85,054,031,23,1,222,055*75
2020-05-22 15-59-16$GPGSV,2,2,6,28,72,331,040,31,52,208,053*4C
2020-05-22 15-59-16$GPRMC,065156.89,A,0134.21063,S,04654.57147,E,0000.9,009.3,220520,0.0,W,A*0D
2020-05-22 15-59-16$GPVTG,009.3,T,009.3,M,0000.9,N,00001.7,K,A*1C
2020-05-22 15-59-16$GPZDA,065156.90,22,05,2020,0,0*6B
2020-05-22 15-59-16$WIMTW,20.2,C*0D
2020-05-22 15-59-16$WIMWD,010.0,T,010.0,M,008.0,N,004.1,M*57
2020-05-22 15-59-16$WIMWV,010.0,R,008.0,N,A*2A
2020-05-22 15-59-16$WIVWR,020.0,L,008.0,N,004.1,M,014.8,K*4B
2020-05-22 15-59-16$WIVWT,020.0,L,008.0,N,004.1,M,014.8,K*4D
2020-05-22 15-59-16$HCHDG,30.0,01.2,E,00.0,W*60
2020-05-22 15-59-16$HEHDM,31.2,M*1F
2020-05-22 15-59-16$HEHDT,30.0,T*1C
2020-05-22 15-59-16$HETHS,30.0,A*1E
2020-05-22 15-59-16$TIROT,00.0,A*0B
2020-05-22 15-59-16$WIMTW,20.0,C*0F
2020-05-22 15-59-16$WIMWD,000.0,T,000.0,M,000.0,N,000.0,M*5A
2020-05-22 15-59-16$WIMWV,000.0,T,000.0,N,A*25
2020-05-22 15-59-16$WIVWR,030.0,L,000.0,N,000.0,M,000.0,K*4A
2020-05-22 15-59-16$WIVWT,030.0,L,000.0,N,000.0,M,000.0,K*4C
2020-05-22 15-59-17$SDDBK,00.0,f,00.0,M,00.0,F*29
2020-05-22 15-59-17$SDDBS,00.0,f,00.0,M,00.0,F*31
2020-05-22 15-59-17$SDDBT,00.0,f,00.0,M,00.0,F*36
2020-05-22 15-59-17$SDDPT,0.0,0.0,*7B
2020-05-22 15-59-17!AIVDM,1,1,,A,1<5UJi@P099EHKWf@7OPG@BS250l,0*1A
2020-05-22 15-59-17$VDVBW,00.0,00.0,A,00.0,00.0,A,00.0,A,00.0,A*51
2020-05-22 15-59-17$VWVHW,30.0,T,30.0,M,00.0,N,00.0,K*54
2020-05-22 15-59-17$VWVLW,0.000,N,0.000,N*4C
2020-05-22 15-59-17$VDVBW,04.0,02.0,A,02.0,00.0,A,02.0,A,02.0,A*55
2020-05-22 15-59-17$VWVHW,30.0,T,30.0,M,04.0,N,07.4,K*53
2020-05-22 15-59-17$VWVLW,68.999,N,67.999,N*43
2020-05-22 15-59-17$GPGGA,065156.78,0131.99894,N,00051.29866,E,1,6,0.0,1398,M,50.0,M,,*7D
2020-05-22 15-59-17$GPGLL,0131.99894,N,00051.29866,E,065156.76,A,A*68
2020-05-22 15-59-17$GPGSA,A,3,2,6,15,23,26,31,,,,,,,0.0,0.0,0.0*35
2020-05-22 15-59-17$GPGSV,2,1,6,2,40,221,098,6,79,116,088,15,44,075,037,23,62,289,054*41
2020-05-22 15-59-17$GPGSV,2,2,6,26,61,334,068,31,21,330,083*4C
2020-05-22 15-59-17$GPRMC,065156.77,A,0131.99894,N,00051.29866,E,0005.0,030.0,220520,0.0,W,A*16
2020-05-22 15-59-17$GPVTG,030.0,T,030.0,M,0005.0,N,00009.3,K,A*1C
2020-05-22 15-59-17$GPZDA,065156.78,22,05,2020,0,0*6D
2020-05-22 15-59-17$GPGGA,065157.89,0134.21038,S,04654.57151,E,1,6,0.0,4,M,50.0,M,0,0*53
2020-05-22 15-59-17$GPGLL,0134.21038,S,04654.57151,E,065157.88,A,A*7E
2020-05-22 15-59-17$GPGSA,A,3,3,6,15,23,28,31,,,,,,,0.0,0.0,0.0*3A
2020-05-22 15-59-17$GPGSV,2,1,6,3,46,221,000,6,61,258,076,15,73,062,080,23,3,149,069*7E
2020-05-22 15-59-17$GPGSV,2,2,6,28,43,204,034,31,73,231,072*40
2020-05-22 15-59-17$GPRMC,065157.88,A,0134.21038,S,04654.57151,E,0000.9,009.3,220520,0.0,W,A*04
2020-05-22 15-59-17$GPVTG,009.3,T,009.3,M,0000.9,N,00001.7,K,A*1C
2020-05-22 15-59-17$GPZDA,065157.89,22,05,2020,0,0*62
2020-05-22 15-59-17$WIMTW,20.2,C*0D
2020-05-22 15-59-17$WIMWD,008.8,T,008.8,M,008.3,N,004.3,M*56
2020-05-22 15-59-17$WIMWV,008.8,R,008.3,N,A*28
2020-05-22 15-59-17$WIVWR,021.2,L,008.3,N,004.3,M,015.4,K*44
2020-05-22 15-59-17$WIVWT,021.2,L,008.3,N,004.3,M,015.4,K*42
2020-05-22 15-59-17$HCHDG,30.0,01.2,E,00.0,W*60
2020-05-22 15-59-17$HEHDM,31.2,M*1F
2020-05-22 15-59-17$HEHDT,30.0,T*1C
2020-05-22 15-59-17$HETHS,30.0,A*1E
2020-05-22 15-59-17$TIROT,00.0,A*0B
2020-05-22 15-59-17$WIMTW,20.0,C*0F
2020-05-22 15-59-17$WIMWD,000.0,T,000.0,M,000.0,N,000.0,M*5A
2020-05-22 15-59-17$WIMWV,000.0,T,000.0,N,A*25
2020-05-22 15-59-17$WIVWR,030.0,L,000.0,N,000.0,M,000.0,K*4A
2020-05-22 15-59-17$WIVWT,030.0,L,000.0,N,000.0,M,000.0,K*4C
2020-05-22 15-59-18$SDDBK,00.0,f,00.0,M,00.0,F*29
2020-05-22 15-59-18$SDDBS,00.0,f,00.0,M,00.0,F*31
2020-05-22 15-59-18$SDDBT,00.0,f,00.0,M,00.0,F*36
2020-05-22 15-59-18$SDDPT,0.0,0.0,*7B
2020-05-22 15-59-18$VDVBW,00.0,00.0,A,00.0,00.0,A,00.0,A,00.0,A*51
2020-05-22 15-59-18$VWVHW,30.0,T,30.0,M,00.0,N,00.0,K*54
2020-05-22 15-59-18$VWVLW,0.000,N,0.000,N*4C
2020-05-22 15-59-18$VDVBW,04.0,02.0,A,02.0,00.0,A,02.0,A,02.0,A*55
2020-05-22 15-59-18$VWVHW,30.0,T,30.0,M,04.0,N,07.4,K*53
2020-05-22 15-59-18$VWVLW,68.999,N,67.999,N*43
2020-05-22 15-59-18$GPGGA,065157.78,0132.00014,N,00051.29935,E,1,6,0.0,1398,M,50.0,M,,*78
2020-05-22 15-59-18$GPGLL,0132.00014,N,00051.29935,E,065157.76,A,A*6D
2020-05-22 15-59-18$GPGSA,A,3,2,6,15,23,26,31,,,,,,,0.0,0.0,0.0*35
2020-05-22 15-59-18$GPGSV,2,1,6,2,18,289,098,6,50,261,005,15,43,184,011,23,47,280,038*4B
2020-05-22 15-59-18$GPGSV,2,2,6,26,76,234,079,31,57,344,064*40
2020-05-22 15-59-18$GPRMC,065157.77,A,0132.00014,N,00051.29935,E,0005.0,030.0,220520,0.0,W,A*13
2020-05-22 15-59-18$GPVTG,030.0,T,030.0,M,0005.0,N,00009.3,K,A*1C
2020-05-22 15-59-18$GPZDA,065157.77,22,05,2020,0,0*63
2020-05-22 15-59-18$GPGGA,065158.89,0134.21013,S,04654.57155,E,1,6,0.0,4,M,50.0,M,0,0*51
2020-05-22 15-59-18$GPGLL,0134.21013,S,04654.57155,E,065158.87,A,A*73
2020-05-22 15-59-18$GPGSA,A,3,3,6,15,23,28,31,,,,,,,0.0,0.0,0.0*3A
2020-05-22 15-59-18$GPGSV,2,1,6,3,21,087,091,6,70,282,031,15,67,024,077,23,34,214,097*4C
2020-05-22 15-59-18$GPGSV,2,2,6,28,3,079,064,31,6,301,020*4E
2020-05-22 15-59-18$GPRMC,065158.88,A,0134.21013,S,04654.57155,E,0000.9,009.3,220520,0.0,W,A*06
2020-05-22 15-59-18$GPVTG,009.3,T,009.3,M,0000.9,N,00001.7,K,A*1C
2020-05-22 15-59-18$GPZDA,065158.88,22,05,2020,0,0*6C
2020-05-22 15-59-18$WIMTW,20.2,C*0D
2020-05-22 15-59-18$WIMWD,006.9,T,006.9,M,007.9,N,004.0,M*50
2020-05-22 15-59-18$WIMWV,006.9,R,007.9,N,A*22
2020-05-22 15-59-18$WIVWR,023.1,L,007.9,N,004.0,M,014.5,K*43
2020-05-22 15-59-18$WIVWT,023.1,L,007.9,N,004.0,M,014.5,K*45
2020-05-22 15-59-18$HCHDG,30.0,01.2,E,00.0,W*60
2020-05-22 15-59-18$HEHDM,31.2,M*1F
2020-05-22 15-59-18$HEHDT,30.0,T*1C
2020-05-22 15-59-18$HETHS,30.0,A*1E
2020-05-22 15-59-18$TIROT,00.0,A*0B
2020-05-22 15-59-18$WIMTW,20.0,C*0F
2020-05-22 15-59-18$WIMWD,000.0,T,000.0,M,000.0,N,000.0,M*5A
2020-05-22 15-59-18$WIMWV,000.0,T,000.0,N,A*25
2020-05-22 15-59-18$WIVWR,030.0,L,000.0,N,000.0,M,000.0,K*4A
2020-05-22 15-59-18$WIVWT,030.0,L,000.0,N,000.0,M,000.0,K*4C
2020-05-22 15-59-19$SDDBK,00.0,f,00.0,M,00.0,F*29
2020-05-22 15-59-19$SDDBS,00.0,f,00.0,M,00.0,F*31
2020-05-22 15-59-19$SDDBT,00.0,f,00.0,M,00.0,F*36
2020-05-22 15-59-19$SDDPT,0.0,0.0,*7B
2020-05-22 15-59-19!AIVDM,1,1,,A,1<5UJi@P099EHKWf@7P0G@BU250l,0*63
2020-05-22 15-59-19$VDVBW,00.0,00.0,A,00.0,00.0,A,00.0,A,00.0,A*51
2020-05-22 15-59-19$VWVHW,30.0,T,30.0,M,00.0,N,00.0,K*54
2020-05-22 15-59-19$VWVLW,0.000,N,0.000,N*4C
2020-05-22 15-59-19$VDVBW,04.0,02.0,A,02.0,00.0,A,02.0,A,02.0,A*55
2020-05-22 15-59-19$VWVHW,30.0,T,30.0,M,04.0,N,07.4,K*53
2020-05-22 15-59-19$VWVLW,69.000,N,68.000,N*4D
2020-05-22 15-59-19$GPGGA,065158.78,0132.00134,N,00051.30004,E,1,6,0.0,1398,M,50.0,M,,*77
2020-05-22 15-59-19$GPGLL,0132.00134,N,00051.30004,E,065158.77,A,A*63
2020-05-22 15-59-19$GPGSA,A,3,2,6,15,23,26,31,,,,,,,0.0,0.0,0.0*35
2020-05-22 15-59-19$GPGSV,2,1,6,2,17,285,026,6,79,167,058,15,4,203,034,23,41,154,056*77
2020-05-22 15-59-19$GPGSV,2,2,6,26,84,027,062,31,76,149,092*42
2020-05-22 15-59-19$GPRMC,065158.77,A,0132.00134,N,00051.30004,E,0005.0,030.0,220520,0.0,W,A*1C
2020-05-22 15-59-19$GPVTG,030.0,T,030.0,M,0005.0,N,00009.3,K,A*1C
2020-05-22 15-59-19$GPZDA,065158.78,22,05,2020,0,0*63
2020-05-22 15-59-19$GPGGA,065159.89,0134.20988,S,04654.57159,E,1,6,0.0,4,M,50.0,M,0,0*56
2020-05-22 15-59-19$GPGLL,0134.20988,S,04654.57159,E,065159.87,A,A*74
2020-05-22 15-59-19$GPGSA,A,3,3,6,15,23,28,31,,,,,,,0.0,0.0,0.0*3A
2020-05-22 15-59-19$GPGSV,2,1,6,3,79,214,042,6,58,219,083,15,27,155,047,23,73,173,046*4B
2020-05-22 15-59-19$GPGSV,2,2,6,28,17,178,099,31,68,247,011*40
2020-05-22 15-59-19$GPRMC,065159.87,A,0134.20988,S,04654.57159,E,0000.9,009.3,220520,0.0,W,A*0E
2020-05-22 15-59-19$GPVTG,009.3,T,009.3,M,0000.9,N,00001.7,K,A*1C
2020-05-22 15-59-19$GPZDA,065159.89,22,05,2020,0,0*6C
2020-05-22 15-59-19$WIMTW,20.2,C*0D
2020-05-22 15-59-19$WIMWD,008.2,T,008.2,M,008.0,N,004.1,M*57
2020-05-22 15-59-19$WIMWV,008.2,R,008.0,N,A*21
2020-05-22 15-59-19$WIVWR,021.8,L,008.0,N,004.1,M,014.8,K*42
2020-05-22 15-59-19$WIVWT,021.8,L,008.0,N,004.1,M,014.8,K*44
2020-05-22 15-59-19$HCHDG,30.0,01.2,E,00.0,W*60
2020-05-22 15-59-19$HEHDM,31.2,M*1F
2020-05-22 15-59-19$HEHDT,30.0,T*1C
2020-05-22 15-59-19$HETHS,30.0,A*1E
2020-05-22 15-59-19$TIROT,00.0,A*0B
2020-05-22 15-59-19$WIMTW,20.0,C*0F
2020-05-22 15-59-19$WIMWD,000.0,T,000.0,M,000.0,N,000.0,M*5A
2020-05-22 15-59-19$WIMWV,000.0,T,000.0,N,A*25
2020-05-22 15-59-19$WIVWR,030.0,L,000.0,N,000.0,M,000.0,K*4A
2020-05-22 15-59-19$WIVWT,030.0,L,000.0,N,000.0,M,000.0,K*4C
2020-05-22 15-59-20$SDDBK,00.0,f,00.0,M,00.0,F*29
2020-05-22 15-59-20$SDDBS,00.0,f,00.0,M,00.0,F*31
2020-05-22 15-59-20$SDDBT,00.0,f,00.0,M,00.0,F*36
2020-05-22 15-59-20$SDDPT,0.0,0.0,*7B
2020-05-22 15-59-20!AIVDM,1,1,,A,1<5UJi@P099EHKaf@7PhG@BW250l,0*0F
2020-05-22 15-59-20$VDVBW,00.0,00.0,A,00.0,00.0,A,00.0,A,00.0,A*51
2020-05-22 15-59-20$VWVHW,30.0,T,30.0,M,00.0,N,00.0,K*54
2020-05-22 15-59-20$VWVLW,0.000,N,0.000,N*4C
2020-05-22 15-59-20$VDVBW,04.0,02.0,A,02.0,00.0,A,02.0,A,02.0,A*55
2020-05-22 15-59-20$VWVHW,30.0,T,30.0,M,04.0,N,07.4,K*53
2020-05-22 15-59-20$VWVLW,69.001,N,68.001,N*4D
2020-05-22 15-59-20$GPGGA,065159.78,0132.00254,N,00051.30073,E,1,6,0.0,1398,M,50.0,M,,*73
2020-05-22 15-59-20$GPGLL,0132.00254,N,00051.30073,E,065159.76,A,A*66
2020-05-22 15-59-20$GPGSA,A,3,2,6,15,23,26,31,,,,,,,0.0,0.0,0.0*35
2020-05-22 15-59-20$GPGSV,2,1,6,2,26,165,086,6,79,179,066,15,61,161,023,23,34,115,052*41
2020-05-22 15-59-20$GPGSV,2,2,6,26,25,093,089,31,60,170,040*41
2020-05-22 15-59-20$GPRMC,065159.77,A,0132.00254,N,00051.30073,E,0005.0,030.0,220520,0.0,W,A*18
2020-05-22 15-59-20$GPVTG,030.0,T,030.0,M,0005.0,N,00009.3,K,A*1C
2020-05-22 15-59-20$GPZDA,065159.77,22,05,2020,0,0*6D
2020-05-22 15-59-20$GPGGA,065200.90,0134.20963,S,04654.57163,E,1,6,0.0,4,M,50.0,M,0,0*5D
2020-05-22 15-59-20$GPGLL,0134.20963,S,04654.57163,E,065200.89,A,A*79
2020-05-22 15-59-20$GPGSA,A,3,3,6,15,23,28,31,,,,,,,0.0,0.0,0.0*3A
2020-05-22 15-59-20$GPGSV,2,1,6,3,25,258,085,6,2,190,030,15,86,185,033,23,43,076,004*70
2020-05-22 15-59-20$GPGSV,2,2,6,28,70,158,073,31,34,044,025*48
2020-05-22 15-59-20$GPRMC,065200.89,A,0134.20963,S,04654.57163,E,0000.9,009.3,220520,0.0,W,A*03
2020-05-22 15-59-20$GPVTG,009.3,T,009.3,M,0000.9,N,00001.7,K,A*1C
2020-05-22 15-59-20$GPZDA,065200.90,22,05,2020,0,0*6B
2020-05-22 15-59-20$WIMTW,20.2,C*0D
2020-05-22 15-59-20$WIMWD,006.3,T,006.3,M,007.7,N,004.0,M*5E
2020-05-22 15-59-20$WIMWV,006.3,R,007.7,N,A*26
2020-05-22 15-59-20$WIVWR,023.7,L,007.7,N,004.0,M,014.3,K*4D
2020-05-22 15-59-20$WIVWT,023.7,L,007.7,N,004.0,M,014.3,K*4B
2020-05-22 15-59-20$HCHDG,30.0,01.2,E,00.0,W*60
2020-05-22 15-59-20$HEHDM,31.2,M*1F
2020-05-22 15-59-20$HEHDT,30.0,T*1C
2020-05-22 15-59-20$HETHS,30.0,A*1E
2020-05-22 15-59-20$TIROT,00.0,A*0B
2020-05-22 15-59-21$WIMTW,20.0,C*0F
2020-05-22 15-59-21$WIMWD,000.0,T,000.0,M,000.0,N,000.0,M*5A
2020-05-22 15-59-21$WIMWV,000.0,T,000.0,N,A*25
2020-05-22 15-59-21$WIVWR,030.0,L,000.0,N,000.0,M,000.0,K*4A
2020-05-22 15-59-21$WIVWT,030.0,L,000.0,N,000.0,M,000.0,K*4C
2020-05-22 15-59-21$SDDBK,00.0,f,00.0,M,00.0,F*29
2020-05-22 15-59-21$SDDBS,00.0,f,00.0,M,00.0,F*31
2020-05-22 15-59-21$SDDBT,00.0,f,00.0,M,00.0,F*36
2020-05-22 15-59-21$SDDPT,0.0,0.0,*7B
2020-05-22 15-59-21!AIVDM,1,1,,A,1<5UJi@P099EHKaf@7Q@G@Ba250l,0*10
2020-05-22 15-59-21$VDVBW,00.0,00.0,A,00.0,00.0,A,00.0,A,00.0,A*51
2020-05-22 15-59-21$VWVHW,30.0,T,30.0,M,00.0,N,00.0,K*54
2020-05-22 15-59-21$VWVLW,0.000,N,0.000,N*4C
2020-05-22 15-59-21$VDVBW,04.0,02.0,A,02.0,00.0,A,02.0,A,02.0,A*55
2020-05-22 15-59-21$VWVHW,30.0,T,30.0,M,04.0,N,07.4,K*53
2020-05-22 15-59-21$VWVLW,69.001,N,68.001,N*4D
2020-05-22 15-59-21$GPGGA,065200.78,0132.00374,N,00051.30142,E,1,6,0.0,1398,M,50.0,M,,*7C
2020-05-22 15-59-21$GPGLL,0132.00374,N,00051.30142,E,065200.76,A,A*69
2020-05-22 15-59-21$GPGSA,A,3,2,6,15,23,26,31,,,,,,,0.0,0.0,0.0*35
2020-05-22 15-59-21$GPGSV,2,1,6,2,30,031,037,6,54,294,066,15,32,299,008,23,2,236,071*7E
2020-05-22 15-59-21$GPGSV,2,2,6,26,71,040,087,31,81,259,024*45
2020-05-22 15-59-21$GPRMC,065200.77,A,0132.00374,N,00051.30142,E,0005.0,030.0,220520,0.0,W,A*17
2020-05-22 15-59-21$GPVTG,030.0,T,030.0,M,0005.0,N,00009.3,K,A*1C
2020-05-22 15-59-21$GPZDA,065200.78,22,05,2020,0,0*6D
2020-05-22 15-59-21$GPGGA,065201.90,0134.20938,S,04654.57167,E,1,6,0.0,4,M,50.0,M,0,0*56
2020-05-22 15-59-21$GPGLL,0134.20938,S,04654.57167,E,065201.88,A,A*73
2020-05-22 15-59-21$GPGSA,A,3,3,6,15,23,28,31,,,,,,,0.0,0.0,0.0*3A
2020-05-22 15-59-21$GPGSV,2,1,6,3,71,278,080,6,42,287,041,15,63,246,001,23,72,232,065*40
2020-05-22 15-59-21$GPGSV,2,2,6,28,40,224,060,31,26,223,082*4C
2020-05-22 15-59-21$GPRMC,065201.88,A,0134.20938,S,04654.57167,E,0000.9,009.3,220520,0.0,W,A*09
2020-05-22 15-59-21$GPVTG,009.3,T,009.3,M,0000.9,N,00001.7,K,A*1C
2020-05-22 15-59-21$GPZDA,065201.89,22,05,2020,0,0*62
2020-05-22 15-59-21$WIMTW,20.2,C*0D
2020-05-22 15-59-21$WIMWD,007.1,T,007.1,M,008.0,N,004.1,M*57
2020-05-22 15-59-21$WIMWV,007.1,R,008.0,N,A*2D
2020-05-22 15-59-21$WIVWR,022.9,L,008.0,N,004.1,M,014.8,K*40
2020-05-22 15-59-21$WIVWT,022.9,L,008.0,N,004.1,M,014.8,K*46
2020-05-22 15-59-21$HCHDG,30.0,01.2,E,00.0,W*60
2020-05-22 15-59-21$HEHDM,31.2,M*1F
2020-05-22 15-59-21$HEHDT,30.0,T*1C
2020-05-22 15-59-21$HETHS,30.0,A*1E
2020-05-22 15-59-21$TIROT,00.0,A*0B
2020-05-22 15-59-22$WIMTW,20.0,C*0F
2020-05-22 15-59-22$WIMWD,000.0,T,000.0,M,000.0,N,000.0,M*5A
2020-05-22 15-59-22$WIMWV,000.0,T,000.0,N,A*25
2020-05-22 15-59-22$WIVWR,030.0,L,000.0,N,000.0,M,000.0,K*4A
2020-05-22 15-59-22$WIVWT,030.0,L,000.0,N,000.0,M,000.0,K*4C
2020-05-22 15-59-22$SDDBK,00.0,f,00.0,M,00.0,F*29
2020-05-22 15-59-22$SDDBS,00.0,f,00.0,M,00.0,F*31
2020-05-22 15-59-22$SDDBT,00.0,f,00.0,M,00.0,F*36
2020-05-22 15-59-22$SDDPT,0.0,0.0,*7B
2020-05-22 15-59-22!AIVDM,1,1,,A,1<5UJi@P099EHKcf@7RPG@Bc250l,0*03
2020-05-22 15-59-22$VDVBW,00.0,00.0,A,00.0,00.0,A,00.0,A,00.0,A*51
2020-05-22 15-59-22$VWVHW,30.0,T,30.0,M,00.0,N,00.0,K*54
2020-05-22 15-59-22$VWVLW,0.000,N,0.000,N*4C
2020-05-22 15-59-22$VDVBW,04.0,02.0,A,02.0,00.0,A,02.0,A,02.0,A*55
2020-05-22 15-59-22$VWVHW,30.0,T,30.0,M,04.0,N,07.4,K*53
2020-05-22 15-59-22$VWVLW,69.002,N,68.002,N*4D
2020-05-22 15-59-22$GPGGA,065201.79,0132.00494,N,00051.30211,E,1,6,0.0,1398,M,50.0,M,,*70
2020-05-22 15-59-22$GPGLL,0132.00494,N,00051.30211,E,065201.77,A,A*65
2020-05-22 15-59-22$GPGSA,A,3,2,6,15,23,26,31,,,,,,,0.0,0.0,0.0*35
2020-05-22 15-59-22$GPGSV,2,1,6,2,53,101,084,6,65,192,092,15,19,337,020,23,36,119,040*40
2020-05-22 15-59-22$GPGSV,2,2,6,26,83,010,011,31,20,092,079*44
2020-05-22 15-59-22$GPRMC,065201.78,A,0132.00494,N,00051.30211,E,0005.0,030.0,220520,0.0,W,A*15
2020-05-22 15-59-22$GPVTG,030.0,T,030.0,M,0005.0,N,00009.3,K,A*1C
2020-05-22 15-59-22$GPZDA,065201.79,22,05,2020,0,0*6D
2020-05-22 15-59-22$GPGGA,065202.90,0134.20913,S,04654.57171,E,1,6,0.0,4,M,50.0,M,0,0*5B
2020-05-22 15-59-22$GPGLL,0134.20913,S,04654.57171,E,065202.89,A,A*7F
2020-05-22 15-59-22$GPGSA,A,3,3,6,15,23,28,31,,,,,,,0.0,0.0,0.0*3A
2020-05-22 15-59-22$GPGSV,2,1,6,3,66,025,070,6,67,302,056,15,86,229,070,23,61,216,046*4F
2020-05-22 15-59-22$GPGSV,2,2,6,28,1,059,040,31,22,217,026*7E
2020-05-22 15-59-22$GPRMC,065202.89,A,0134.20913,S,04654.57171,E,0000.9,009.3,220520,0.0,W,A*05
2020-05-22 15-59-22$GPVTG,009.3,T,009.3,M,0000.9,N,00001.7,K,A*1C
2020-05-22 15-59-22$GPZDA,065202.90,22,05,2020,0,0*69
2020-05-22 15-59-22$WIMTW,20.2,C*0D
2020-05-22 15-59-22$WIMWD,004.8,T,004.8,M,008.1,N,004.2,M*55
2020-05-22 15-59-22$WIMWV,004.8,R,008.1,N,A*26
2020-05-22 15-59-22$WIVWR,025.2,L,008.1,N,004.2,M,015.0,K*47
2020-05-22 15-59-22$WIVWT,025.2,L,008.1,N,004.2,M,015.0,K*41
2020-05-22 15-59-22$HCHDG,30.0,01.2,E,00.0,W*60
2020-05-22 15-59-22$HEHDM,31.2,M*1F
2020-05-22 15-59-22$HEHDT,30.0,T*1C
2020-05-22 15-59-22$HETHS,30.0,A*1E
2020-05-22 15-59-22$TIROT,00.0,A*0B
2020-05-22 15-59-23$WIMTW,20.0,C*0F
2020-05-22 15-59-23$WIMWD,000.0,T,000.0,M,000.0,N,000.0,M*5A
2020-05-22 15-59-23$WIMWV,000.0,T,000.0,N,A*25
2020-05-22 15-59-23$WIVWR,030.0,L,000.0,N,000.0,M,000.0,K*4A
2020-05-22 15-59-23$WIVWT,030.0,L,000.0,N,000.0,M,000.0,K*4C
2020-05-22 15-59-23$SDDBK,00.0,f,00.0,M,00.0,F*29
2020-05-22 15-59-23$SDDBS,00.0,f,00.0,M,00.0,F*31
2020-05-22 15-59-23$SDDBT,00.0,f,00.0,M,00.0,F*36
2020-05-22 15-59-23$SDDPT,0.0,0.0,*7B
2020-05-22 15-59-23!AIVDM,1,1,,A,1<5UJi@P099EHKef@7S@G@Bg250l,0*10
2020-05-22 15-59-23$VDVBW,00.0,00.0,A,00.0,00.0,A,00.0,A,00.0,A*51
2020-05-22 15-59-23$VWVHW,30.0,T,30.0,M,00.0,N,00.0,K*54
2020-05-22 15-59-23$VWVLW,0.000,N,0.000,N*4C
2020-05-22 15-59-23$VDVBW,04.0,02.0,A,02.0,00.0,A,02.0,A,02.0,A*55
2020-05-22 15-59-23$VWVHW,30.0,T,30.0,M,04.0,N,07.4,K*53
2020-05-22 15-59-23$VWVLW,69.002,N,68.002,N*4D
2020-05-22 15-59-23$GPGGA,065202.78,0132.00614,N,00051.30280,E,1,6,0.0,1398,M,50.0,M,,*70
2020-05-22 15-59-23$GPGLL,0132.00614,N,00051.30280,E,065202.76,A,A*65
2020-05-22 15-59-23$GPGSA,A,3,2,6,15,23,26,31,,,,,,,0.0,0.0,0.0*35
2020-05-22 15-59-23$GPGSV,2,1,6,2,67,114,042,6,81,077,021,15,51,086,081,23,49,259,025*43
2020-05-22 15-59-23$GPGSV,2,2,6,26,15,178,024,31,49,023,002*4B
2020-05-22 15-59-23$GPRMC,065202.76,A,0132.00614,N,00051.30280,E,0005.0,030.0,220520,0.0,W,A*1A
2020-05-22 15-59-23$GPVTG,030.0,T,030.0,M,0005.0,N,00009.3,K,A*1C
2020-05-22 15-59-23$GPZDA,065202.77,22,05,2020,0,0*60
2020-05-22 15-59-23$GPGGA,065203.89,0134.20888,S,04654.57175,E,1,6,0.0,4,M,50.0,M,0,0*55
2020-05-22 15-59-23$GPGLL,0134.20888,S,04654.57175,E,065203.87,A,A*77
2020-05-22 15-59-23$GPGSA,A,3,3,6,15,23,28,31,,,,,,,0.0,0.0,0.0*3A
2020-05-22 15-59-23$GPGSV,2,1,6,3,83,070,073,6,74,120,008,15,62,352,002,23,63,342,085*43
2020-05-22 15-59-23$GPGSV,2,2,6,28,82,357,077,31,56,111,081*47
2020-05-22 15-59-23$GPRMC,065203.87,A,0134.20888,S,04654.57175,E,0000.9,009.3,220520,0.0,W,A*0D
2020-05-22 15-59-23$GPVTG,009.3,T,009.3,M,0000.9,N,00001.7,K,A*1C
2020-05-22 15-59-23$GPZDA,065203.88,22,05,2020,0,0*61
2020-05-22 15-59-23$WIMTW,20.2,C*0D
2020-05-22 15-59-23$WIMWD,008.3,T,008.3,M,008.3,N,004.3,M*56
2020-05-22 15-59-23$WIMWV,008.3,R,008.3,N,A*23
2020-05-22 15-59-23$WIVWR,021.7,L,008.3,N,004.3,M,015.4,K*41
2020-05-22 15-59-23$WIVWT,021.7,L,008.3,N,004.3,M,015.4,K*47
2020-05-22 15-59-23$HCHDG,30.0,01.2,E,00.0,W*60
2020-05-22 15-59-23$HEHDM,31.2,M*1F
2020-05-22 15-59-23$HEHDT,30.0,T*1C
2020-05-22 15-59-23$HETHS,30.0,A*1E
2020-05-22 15-59-23$TIROT,00.0,A*0B
2020-05-22 15-59-24$WIMTW,20.0,C*0F
2020-05-22 15-59-24$WIMWD,000.0,T,000.0,M,000.0,N,000.0,M*5A
2020-05-22 15-59-24$WIMWV,000.0,T,000.0,N,A*25
2020-05-22 15-59-24$WIVWR,030.0,L,000.0,N,000.0,M,000.0,K*4A
2020-05-22 15-59-24$WIVWT,030.0,L,000.0,N,000.0,M,000.0,K*4C
2020-05-22 15-59-24$SDDBK,00.0,f,00.0,M,00.0,F*29
2020-05-22 15-59-24$SDDBS,00.0,f,00.0,M,00.0,F*31
2020-05-22 15-59-24$SDDBT,00.0,f,00.0,M,00.0,F*36
2020-05-22 15-59-24$SDDPT,0.0,0.0,*7B
