2020-05-21 10-59-59$IIHRM,0.3,0.0,0.0,0.0,V,,,,,*02
2020-05-21 11-00-00$GPGGA,025942.29,0228.5393,S,03443.9609,W,1,09,01,+0046,M,-008,M,,*48
2020-05-21 11-00-00$GPVTG,127.3,T,127.3,M,013.6,N,025.2,K,A*22
2020-05-21 11-00-00$WIMWD,095.5,T,,,017.9,N,,M*11
2020-05-21 11-00-00$WIMWV,326.0,T,015.2,N,A*24
2020-05-21 11-00-00$WIMWV,344.0,R,027.2,N,A*27
2020-05-21 11-00-00$AGHTD,V,1.7,R,S,T,15.0,10.0,,10.00,125.0,,,T,A,A,,123.21*12
2020-05-21 11-00-00$AGROR,1.7,A,,V,B*18
2020-05-21 11-00-00$AGRSA,2.0,A,,V*7D
2020-05-21 11-00-00$PYDKN,NF COMMAND,V,,,*5D
2020-05-21 11-00-00!AIVDO,1,1,,,177:=V0028MQ0K=vUEUlvCoF04Cd,0*35
2020-05-21 11-00-00$IIMHU,86.0,22.6,24.8,C*0B
2020-05-21 11-00-00$IIMMB,3.0,I,0.0,B*4A
2020-05-21 11-00-00$IIMTA,27.4,C*04
2020-05-21 11-00-00$IITRM,-1.3,0.0,0.0,0.0,V,,,,,*32
2020-05-21 11-00-00$IIMWD,324.0,T,87.2,M,29.5,N,15.2,M*74
2020-05-21 11-00-00$IIMWV,324.0,R,15.2,M,A*0D
2020-05-21 11-00-00$IIMWV,324.0,T,15.2,M,A*0B
2020-05-21 11-00-00$IIRAI,0.00,60,0.00,A*1D
2020-05-21 11-00-00$IIVWR,36.0,L,29.5,N,15.2,M,0.0,K*6A
2020-05-21 11-00-00$IIVWT,36.0,L,19.8,N,10.2,M,0.0,K*67
2020-05-21 11-00-00$IIHRM,0.5,0.0,0.0,0.0,V,,,,,*04
2020-05-21 11-00-00$VDVBW,014.32,,A,00.00,00.00,V,,V,00.00,V*72
2020-05-21 11-00-00$VDVLW,9461.12,N,8609.99,N*51
2020-05-21 11-00-00$INTHS,123.2,A*25
2020-05-21 11-00-00$HEHDT,123.2,T*2D
2020-05-21 11-00-00$HEHDT,123.2,T*2D
2020-05-21 11-00-00$TIROT,-000.1,A*17
2020-05-21 11-00-00$TIROT,-000.2,A*14
2020-05-21 11-00-00$GPAPB,A,A,,,N,,,,T,,,T,,,A*67
2020-05-21 11-00-00$GPDTM,W84,,0.0,N,0.0,E,+0.0,W84*44
2020-05-21 11-00-00$GPGGA,025944.29,0228.5440,S,03443.9548,W,1,09,01,+0046,M,-008,M,,*41
2020-05-21 11-00-00$GPGLL,0228.5440,S,03443.9548,W,025944.29,A,A*6E
2020-05-21 11-00-00$GPRMB,A,,,,,,,,,,,,,A*4A
2020-05-21 11-00-00$GPRMC,025944.29,A,0228.5440,S,03443.9548,W,013.6,127.3,210520,20.,W,A*25
2020-05-21 11-00-00$GPVTG,127.3,T,127.3,M,013.6,N,025.2,K,A*22
2020-05-21 11-00-00$GPZDA,025946.00,21,05,2020,01,00*6D
2020-05-21 11-00-00$IITRM,-1.4,0.0,0.0,0.0,V,,,,,*35
2020-05-21 11-00-00$IIHRM,0.5,0.0,0.0,0.0,V,,,,,*04
2020-05-21 11-00-01$GPGGA,025943.29,0228.5417,S,03443.9578,W,1,09,01,+0046,M,-008,M,,*47
2020-05-21 11-00-01$GPVTG,127.3,T,127.3,M,013.6,N,025.2,K,A*22
2020-05-21 11-00-01$WIMWD,089.2,T,,,015.2,N,,M*12
2020-05-21 11-00-01$WIMWV,335.4,T,015.1,N,A*21
2020-05-21 11-00-01$WIMWV,349.0,R,027.8,N,A*20
2020-05-21 11-00-01$AGHTD,V,1.7,R,S,T,15.0,10.0,,10.00,125.0,,,T,A,A,,123.20*13
2020-05-21 11-00-01$AGROR,1.7,A,,V,B*18
2020-05-21 11-00-01$AGRSA,2.0,A,,V*7D
2020-05-21 11-00-01$PYDKN,NF COMMAND,V,,,*5D
2020-05-21 11-00-01!AIVDO,1,1,,,177:=V0wB8MQ0L9vUEP4vCoH04Cd,0*52
2020-05-21 11-00-01$IIMHU,86.0,22.6,24.8,C*0B
2020-05-21 11-00-01$IIMMB,3.0,I,0.0,B*4A
2020-05-21 11-00-01$IIMTA,27.4,C*04
2020-05-21 11-00-01$IIMWD,324.0,T,87.2,M,29.5,N,15.2,M*74
2020-05-21 11-00-01$IIMWV,324.0,R,15.2,M,A*0D
2020-05-21 11-00-01$IIMWV,324.0,T,15.2,M,A*0B
2020-05-21 11-00-01$IIRAI,0.00,60,0.00,A*1D
2020-05-21 11-00-01$IIVWR,36.0,L,29.5,N,15.2,M,0.0,K*6A
2020-05-21 11-00-01$IIVWT,36.0,L,19.8,N,10.2,M,0.0,K*67
2020-05-21 11-00-01$VDVBW,014.32,,A,00.00,00.00,V,,V,00.00,V*72
2020-05-21 11-00-01$VDVLW,9461.12,N,8610.00,N*59
2020-05-21 11-00-01$INHBT,1,A,2*37
2020-05-21 11-00-01$INTHS,123.2,A*25
2020-05-21 11-00-01$HEHDT,123.2,T*2D
2020-05-21 11-00-01$HEHDT,123.2,T*2D
2020-05-21 11-00-01$TIROT,-000.3,A*15
2020-05-21 11-00-01$TIROT,-000.3,A*15
2020-05-21 11-00-01$GPAPB,A,A,,,N,,,,T,,,T,,,A*67
2020-05-21 11-00-01$GPDTM,W84,,0.0,N,0.0,E,+0.0,W84*44
2020-05-21 11-00-01$GPGGA,025945.29,0228.5463,S,03443.9518,W,1,09,01,+0046,M,-008,M,,*44
2020-05-21 11-00-01$GPGLL,0228.5463,S,03443.9518,W,025945.29,A,A*6B
2020-05-21 11-00-01$GPRMB,A,,,,,,,,,,,,,A*4A
2020-05-21 11-00-01$GPRMC,025945.29,A,0228.5463,S,03443.9518,W,013.6,127.3,210520,20.,W,A*20
2020-05-21 11-00-01$GPVTG,127.3,T,127.3,M,013.6,N,025.2,K,A*22
2020-05-21 11-00-01$GPZDA,025947.00,21,05,2020,01,00*6C
2020-05-21 11-00-02$GPGGA,025944.29,0228.5440,S,03443.9548,W,1,09,01,+0046,M,-008,M,,*41
2020-05-21 11-00-02$GPVTG,127.3,T,127.3,M,013.6,N,025.2,K,A*22
2020-05-21 11-00-02$WIMWD,098.6,T,,,015.1,N,,M*15
2020-05-21 11-00-02$WIMWV,331.8,T,015.2,N,A*2A
2020-05-21 11-00-02$WIMWV,347.0,R,027.7,N,A*21
2020-05-21 11-00-02$AGHTD,V,1.7,R,S,T,15.0,10.0,,10.00,125.0,,,T,A,A,,123.20*13
2020-05-21 11-00-02$AGROR,1.7,A,,V,B*18
2020-05-21 11-00-02$AGRSA,1.9,A,,V*77
2020-05-21 11-00-02$PYDKN,NF COMMAND,V,,,*5D
2020-05-21 11-00-02!AIVDO,1,1,,,177:=V0wB8MQ0M5vUEJDvCoJ04Cd,0*37
2020-05-21 11-00-02$IIMHU,86.0,22.6,24.8,C*0B
2020-05-21 11-00-02$IIMMB,3.0,I,0.0,B*4A
2020-05-21 11-00-02$IIMTA,27.4,C*04
2020-05-21 11-00-02$IIMWD,324.0,T,87.2,M,29.5,N,15.2,M*74
2020-05-21 11-00-02$IIMWV,324.0,R,15.2,M,A*0D
2020-05-21 11-00-02$IIMWV,324.0,T,15.2,M,A*0B
2020-05-21 11-00-02$IIRAI,0.00,60,0.00,A*1D
2020-05-21 11-00-02$IIVWR,36.0,L,29.5,N,15.2,M,0.0,K*6A
2020-05-21 11-00-02$IIVWT,36.0,L,19.8,N,10.2,M,0.0,K*67
2020-05-21 11-00-02$VDVBW,014.32,,A,00.00,00.00,V,,V,00.00,V*72
2020-05-21 11-00-02$VDVLW,9461.12,N,8610.00,N*59
2020-05-21 11-00-02$INHBT,1,A,3*36
2020-05-21 11-00-02$INTHS,123.2,A*25
2020-05-21 11-00-02$HEHDT,123.2,T*2D
2020-05-21 11-00-02$HEHDT,123.2,T*2D
2020-05-21 11-00-02$TIROT,-000.3,A*15
2020-05-21 11-00-02$TIROT,-000.3,A*15
2020-05-21 11-00-02$GPAPB,A,A,,,N,,,,T,,,T,,,A*67
2020-05-21 11-00-02$GPDTM,W84,,0.0,N,0.0,E,+0.0,W84*44
2020-05-21 11-00-02$GPGGA,025946.29,0228.5486,S,03443.9488,W,1,09,01,+0046,M,-008,M,,*44
2020-05-21 11-00-02$GPGLL,0228.5486,S,03443.9488,W,025946.29,A,A*6B
2020-05-21 11-00-02$GPRMB,A,,,,,,,,,,,,,A*4A
2020-05-21 11-00-02$GPRMC,025946.29,A,0228.5486,S,03443.9488,W,013.6,127.4,210520,20.,W,A*27
2020-05-21 11-00-02$GPVTG,127.4,T,127.4,M,013.6,N,025.2,K,A*22
2020-05-21 11-00-02$GPZDA,025948.00,21,05,2020,01,00*63
2020-05-21 11-00-03$GPGGA,025945.29,0228.5463,S,03443.9518,W,1,09,01,+0046,M,-008,M,,*44
2020-05-21 11-00-03$GPVTG,127.3,T,127.3,M,013.6,N,025.2,K,A*22
2020-05-21 11-00-03$WIMWD,095.0,T,,,015.2,N,,M*1D
2020-05-21 11-00-03$WIMWV,345.3,T,012.7,N,A*20
2020-05-21 11-00-03$WIMWV,355.0,R,026.0,N,A*24
2020-05-21 11-00-03$AGHTD,V,1.7,R,S,T,15.0,10.0,,10.00,125.0,,,T,A,A,,123.19*19
2020-05-21 11-00-03$AGROR,1.7,A,,V,B*18
2020-05-21 11-00-03$AGRSA,1.9,A,,V*77
2020-05-21 11-00-03$PYDKN,NF COMMAND,V,,,*5D
2020-05-21 11-00-03!AIVDO,1,1,,B,177:=V0wB8MQ0N1vUEDTvSoL00SC,0*49
2020-05-21 11-00-03$IIMHU,86.0,22.6,24.8,C*0B
2020-05-21 11-00-03$IIMMB,3.0,I,0.0,B*4A
2020-05-21 11-00-03$IIMTA,27.4,C*04
2020-05-21 11-00-03$IIMWD,323.0,T,86.2,M,29.4,N,15.1,M*70
2020-05-21 11-00-03$IIMWV,323.0,R,15.1,M,A*09
2020-05-21 11-00-03$IIMWV,323.0,T,15.1,M,A*0F
2020-05-21 11-00-03$IIRAI,0.00,60,0.00,A*1D
2020-05-21 11-00-03$VDVBW,014.32,,A,00.00,00.00,V,,V,00.00,V*72
2020-05-21 11-00-03$VDVLW,9461.13,N,8610.00,N*58
2020-05-21 11-00-03$IIVWR,37.0,L,29.4,N,15.1,M,0.0,K*69
2020-05-21 11-00-03$IIVWT,37.0,L,19.9,N,10.2,M,0.0,K*67
2020-05-21 11-00-03$INHBT,1,A,4*31
2020-05-21 11-00-03$INTHS,123.2,A*25
2020-05-21 11-00-03$HEHDT,123.2,T*2D
2020-05-21 11-00-03$HEHDT,123.2,T*2D
2020-05-21 11-00-03$TIROT,-000.2,A*14
2020-05-21 11-00-03$TIROT,-000.2,A*14
2020-05-21 11-00-03$GPAPB,A,A,,,N,,,,T,,,T,,,A*67
2020-05-21 11-00-03$GPDTM,W84,,0.0,N,0.0,E,+0.0,W84*44
2020-05-21 11-00-03$GPGGA,025947.29,0228.5509,S,03443.9458,W,1,09,01,+0046,M,-008,M,,*4E
2020-05-21 11-00-03$GPGLL,0228.5509,S,03443.9458,W,025947.29,A,A*61
2020-05-21 11-00-03$GPRMB,A,,,,,,,,,,,,,A*4A
2020-05-21 11-00-03$GPRMC,025947.29,A,0228.5509,S,03443.9458,W,013.6,127.4,210520,20.,W,A*2D
2020-05-21 11-00-03$GPVTG,127.4,T,127.4,M,013.6,N,025.2,K,A*22
2020-05-21 11-00-03$GPZDA,025949.00,21,05,2020,01,00*62
2020-05-21 11-00-04$GPGGA,025946.29,0228.5486,S,03443.9488,W,1,09,01,+0046,M,-008,M,,*44
2020-05-21 11-00-04$GPVTG,127.4,T,127.4,M,013.6,N,025.2,K,A*22
2020-05-21 11-00-04$WIMWD,108.5,T,,,012.7,N,,M*1F
2020-05-21 11-00-04$WIMWV,336.2,T,014.0,N,A*24
2020-05-21 11-00-04$WIMWV,350.0,R,026.7,N,A*26
2020-05-21 11-00-04$AGHTD,V,1.7,R,S,T,15.0,10.0,,10.00,125.0,,,T,A,A,,123.19*19
2020-05-21 11-00-04$AGROR,1.7,A,,V,B*18
2020-05-21 11-00-04$AGRSA,1.9,A,,V*77
2020-05-21 11-00-04$PYDKN,NF COMMAND,V,,,*5D
2020-05-21 11-00-04!AIVDO,1,1,,,177:=V0wR8MQ0NuvUE>lvSoN04Cd,0*2C
2020-05-21 11-00-04$VDVBW,014.32,,A,00.00,00.00,V,,V,00.00,V*72
2020-05-21 11-00-04$VDVLW,9461.13,N,8610.01,N*59
2020-05-21 11-00-04$IIMHU,86.8,22.8,25.0,C*04
2020-05-21 11-00-04$IIMMB,3.0,I,0.0,B*4A
2020-05-21 11-00-04$IIMTA,27.4,C*04
2020-05-21 11-00-04$IIMWD,324.0,T,87.2,M,29.2,N,15.0,M*71
2020-05-21 11-00-04$IIMWV,324.0,R,15.0,M,A*0F
2020-05-21 11-00-04$IIMWV,324.0,T,15.0,M,A*09
2020-05-21 11-00-04$IIRAI,0.00,60,0.00,A*1D
2020-05-21 11-00-04$IIVWR,36.0,L,29.2,N,15.0,M,0.0,K*6F
2020-05-21 11-00-04$IIVWT,36.0,L,19.5,N,10.0,M,0.0,K*68
2020-05-21 11-00-04$INHBT,1,A,5*30
2020-05-21 11-00-04$INTHS,123.2,A*25
2020-05-21 11-00-04$HEHDT,123.2,T*2D
2020-05-21 11-00-04$HEHDT,123.2,T*2D
2020-05-21 11-00-04$TIROT,-000.1,A*17
2020-05-21 11-00-04$TIROT,-000.1,A*17
2020-05-21 11-00-04$GPAPB,A,A,,,N,,,,T,,,T,,,A*67
2020-05-21 11-00-04$GPDTM,W84,,0.0,N,0.0,E,+0.0,W84*44
2020-05-21 11-00-04$GPGGA,025948.29,0228.5532,S,03443.9427,W,1,09,01,+0046,M,-008,M,,*41
2020-05-21 11-00-04$GPGLL,0228.5532,S,03443.9427,W,025948.29,A,A*6E
2020-05-21 11-00-04$GPRMB,A,,,,,,,,,,,,,A*4A
2020-05-21 11-00-04$GPRMC,025948.29,A,0228.5532,S,03443.9427,W,013.6,127.3,210520,20.,W,A*25
2020-05-21 11-00-04$GPVTG,127.3,T,127.3,M,013.6,N,025.2,K,A*22
2020-05-21 11-00-04$GPZDA,025950.00,21,05,2020,01,00*6A
2020-05-21 11-00-05$GPGGA,025947.29,0228.5509,S,03443.9458,W,1,09,01,+0046,M,-008,M,,*4E
2020-05-21 11-00-05$GPVTG,127.4,T,127.4,M,013.6,N,025.2,K,A*22
2020-05-21 11-00-05$WIMWD,099.4,T,,,014.0,N,,M*16
2020-05-21 11-00-05$WIMWV,342.1,T,016.7,N,A*21
2020-05-21 11-00-05$WIMWV,352.0,R,029.7,N,A*2B
2020-05-21 11-00-05$AGHTD,V,1.7,R,S,T,15.0,10.0,,10.00,125.0,,,T,A,A,,123.19*19
2020-05-21 11-00-05$AGROR,1.7,A,,V,B*18
2020-05-21 11-00-05$AGRSA,1.9,A,,V*77
2020-05-21 11-00-05$PYDKN,NF COMMAND,V,,,*5D
2020-05-21 11-00-05!AIVDO,1,1,,,177:=V0wj8MQ0OsvUE94vCoP04Cd,0*42
2020-05-21 11-00-05$VDVBW,014.32,,A,00.00,00.00,V,,V,00.00,V*72
2020-05-21 11-00-05$VDVLW,9461.14,N,8610.01,N*5E
2020-05-21 11-00-05$IIMHU,86.8,22.8,25.0,C*04
2020-05-21 11-00-05$IIMMB,3.0,I,0.0,B*4A
2020-05-21 11-00-05$IIMTA,27.4,C*04
2020-05-21 11-00-05$IIMWD,324.0,T,87.2,M,29.2,N,15.0,M*71
2020-05-21 11-00-05$IIMWV,324.0,R,15.0,M,A*0F
2020-05-21 11-00-05$IIMWV,324.0,T,15.0,M,A*09
2020-05-21 11-00-05$IIRAI,0.00,60,0.00,A*1D
2020-05-21 11-00-05$IIVWR,36.0,L,29.2,N,15.0,M,0.0,K*6F
2020-05-21 11-00-05$IIVWT,36.0,L,19.5,N,10.0,M,0.0,K*68
2020-05-21 11-00-05$INHBT,1,A,6*33
2020-05-21 11-00-05$INTHS,123.2,A*25
2020-05-21 11-00-05$HEHDT,123.2,T*2D
2020-05-21 11-00-05$HEHDT,123.2,T*2D
2020-05-21 11-00-05$TIROT,-000.1,A*17
2020-05-21 11-00-05$TIROT,-000.1,A*17
2020-05-21 11-00-05$GPAPB,A,A,,,N,,,,T,,,T,,,A*67
2020-05-21 11-00-05$GPDTM,W84,,0.0,N,0.0,E,+0.0,W84*44
2020-05-21 11-00-05$GPGGA,025949.29,0228.5555,S,03443.9397,W,1,09,01,+0046,M,-008,M,,*4D
2020-05-21 11-00-05$GPGLL,0228.5555,S,03443.9397,W,025949.29,A,A*62
2020-05-21 11-00-05$GPRMB,A,,,,,,,,,,,,,A*4A
2020-05-21 11-00-05$GPRMC,025949.29,A,0228.5555,S,03443.9397,W,013.6,127.3,210520,20.,W,A*29
2020-05-21 11-00-05$GPVTG,127.3,T,127.3,M,013.6,N,025.2,K,A*22
2020-05-21 11-00-05$GPZDA,025951.00,21,05,2020,01,00*6B
2020-05-21 11-00-06$GPGGA,025948.29,0228.5532,S,03443.9427,W,1,09,01,+0046,M,-008,M,,*41
2020-05-21 11-00-06$GPVTG,127.3,T,127.3,M,013.6,N,025.2,K,A*22
2020-05-21 11-00-06$WIMWD,105.3,T,,,016.7,N,,M*10
2020-05-21 11-00-06$WIMWV,341.3,T,012.9,N,A*2A
2020-05-21 11-00-06$WIMWV,353.0,R,026.0,N,A*22
2020-05-21 11-00-06$AGHTD,V,1.7,R,S,T,15.0,10.0,,10.00,125.0,,,T,A,A,,123.19*19
2020-05-21 11-00-06$AGROR,1.7,A,,V,B*18
2020-05-21 11-00-06$AGRSA,1.9,A,,V*77
2020-05-21 11-00-06$PYDKN,NF COMMAND,V,,,*5D
2020-05-21 11-00-06!AIVDO,1,1,,,177:=V0028MQ0PovUE3DvCoR04Cd,0*26
2020-05-21 11-00-06$VDVBW,014.32,,A,00.00,00.00,V,,V,00.00,V*72
2020-05-21 11-00-06$VDVLW,9461.14,N,8610.01,N*5E
2020-05-21 11-00-06$IIMHU,86.8,22.8,25.0,C*04
2020-05-21 11-00-06$IIMMB,3.0,I,0.0,B*4A
2020-05-21 11-00-06$IIMTA,27.4,C*04
2020-05-21 11-00-06$IIMWD,324.0,T,87.2,M,29.2,N,15.0,M*71
2020-05-21 11-00-06$IIMWV,324.0,R,15.0,M,A*0F
2020-05-21 11-00-06$IIMWV,324.0,T,15.0,M,A*09
2020-05-21 11-00-06$IIRAI,0.00,60,0.00,A*1D
2020-05-21 11-00-06$IIVWR,36.0,L,29.2,N,15.0,M,0.0,K*6F
2020-05-21 11-00-06$IIVWT,36.0,L,19.5,N,10.0,M,0.0,K*68
2020-05-21 11-00-06$INTHS,123.2,A*25
2020-05-21 11-00-06$HEHDT,123.2,T*2D
2020-05-21 11-00-06$HEHDT,123.2,T*2D
2020-05-21 11-00-06$TIROT,0000.0,A*0B
2020-05-21 11-00-06$TIROT,0000.0,A*0B
2020-05-21 11-00-06$GPAPB,A,A,,,N,,,,T,,,T,,,A*67
2020-05-21 11-00-06$GPDTM,W84,,0.0,N,0.0,E,+0.0,W84*44
2020-05-21 11-00-06$GPGGA,025950.29,0228.5578,S,03443.9367,W,1,09,01,+0046,M,-008,M,,*45
2020-05-21 11-00-06$GPGLL,0228.5578,S,03443.9367,W,025950.29,A,A*6A
2020-05-21 11-00-06$GPRMB,A,,,,,,,,,,,,,A*4A
2020-05-21 11-00-06$GPRMC,025950.29,A,0228.5578,S,03443.9367,W,013.6,127.2,210520,20.,W,A*20
2020-05-21 11-00-06$GPVTG,127.2,T,127.2,M,013.6,N,025.2,K,A*22
2020-05-21 11-00-06$GPZDA,025952.00,21,05,2020,01,00*68
2020-05-21 11-00-07$GPGGA,025949.29,0228.5555,S,03443.9397,W,1,09,01,+0046,M,-008,M,,*4D
2020-05-21 11-00-07$GPVTG,127.3,T,127.3,M,013.6,N,025.2,K,A*22
2020-05-21 11-00-07$WIMWD,104.5,T,,,012.9,N,,M*1D
2020-05-21 11-00-07$WIMWV,000.0,R,022.9,N,A*2A
2020-05-21 11-00-07$WIMWV,354.0,T,009.3,N,A*2D
2020-05-21 11-00-07$AGHTD,V,1.7,R,S,T,15.0,10.0,,10.00,125.0,,,T,A,A,,123.19*19
2020-05-21 11-00-07$AGROR,1.7,A,,V,B*18
2020-05-21 11-00-07$AGRSA,1.9,A,,V*77
2020-05-21 11-00-07$PYDKN,NF COMMAND,V,,,*5D
2020-05-21 11-00-07!AIVDO,1,1,,,177:=V0028MQ0QkvUDuTv3oT04Cd,0*02
2020-05-21 11-00-07$VDVBW,014.31,,A,00.00,00.00,V,,V,00.00,V*71
2020-05-21 11-00-07$VDVLW,9461.14,N,8610.02,N*5D
2020-05-21 11-00-07$IIMHU,86.8,22.8,25.0,C*04
2020-05-21 11-00-07$IIMMB,3.0,I,0.0,B*4A
2020-05-21 11-00-07$IIMTA,27.4,C*04
2020-05-21 11-00-07$IIMWD,324.0,T,87.2,M,29.4,N,15.1,M*76
2020-05-21 11-00-07$IIMWV,324.0,R,15.1,M,A*0E
2020-05-21 11-00-07$IIMWV,324.0,T,15.1,M,A*08
2020-05-21 11-00-07$IIRAI,0.00,60,0.00,A*1D
2020-05-21 11-00-07$IIVWR,36.0,L,29.4,N,15.1,M,0.0,K*68
2020-05-21 11-00-07$IIVWT,36.0,L,19.7,N,10.1,M,0.0,K*6B
2020-05-21 11-00-07$INHBT,1,A,7*32
2020-05-21 11-00-07$INTHS,123.2,A*25
2020-05-21 11-00-07$HEHCR,123.2,A,S,-00.5*5C
2020-05-21 11-00-07$HEHDT,123.2,T*2D
2020-05-21 11-00-07$TIROT,0000.0,A*0B
2020-05-21 11-00-07$TIROT,0000.0,A*0B
2020-05-21 11-00-07$GPAPB,A,A,,,N,,,,T,,,T,,,A*67
2020-05-21 11-00-07$GPDTM,W84,,0.0,N,0.0,E,+0.0,W84*44
2020-05-21 11-00-07$GPGGA,025951.29,0228.5600,S,03443.9337,W,1,09,01,+0046,M,-008,M,,*4D
2020-05-21 11-00-07$GPGLL,0228.5600,S,03443.9337,W,025951.29,A,A*62
2020-05-21 11-00-07$GPRMB,A,,,,,,,,,,,,,A*4A
2020-05-21 11-00-07$GPRMC,025951.29,A,0228.5600,S,03443.9337,W,013.6,127.2,210520,20.,W,A*28
2020-05-21 11-00-07$GPVTG,127.2,T,127.2,M,013.6,N,025.2,K,A*22
2020-05-21 11-00-07$GPZDA,025953.00,21,05,2020,01,00*69
2020-05-21 11-00-08$GPGGA,025950.29,0228.5578,S,03443.9367,W,1,09,01,+0046,M,-008,M,,*45
2020-05-21 11-00-08$GPVTG,127.2,T,127.2,M,013.6,N,025.2,K,A*22
2020-05-21 11-00-08$WIMWD,117.2,T,,,009.3,N,,M*18
2020-05-21 11-00-08$WIMWV,350.1,T,007.7,N,A*22
2020-05-21 11-00-08$WIMWV,359.0,R,021.1,N,A*2E
2020-05-21 11-00-08$AGHTD,V,1.7,R,S,T,15.0,10.0,,10.00,125.0,,,T,A,A,,123.19*19
2020-05-21 11-00-08$AGROR,1.7,A,,V,B*18
2020-05-21 11-00-08$AGRSA,2.0,A,,V*7D
2020-05-21 11-00-08$PYDKN,NF COMMAND,V,,,*5D
2020-05-21 11-00-08!AIVDO,1,1,,,177:=V0028MQ0RgvUDp4v3oV04Cd,0*6A
2020-05-21 11-00-08$VDVBW,014.31,,A,00.00,00.00,V,,V,00.00,V*71
2020-05-21 11-00-08$VDVLW,9461.15,N,8610.02,N*5C
2020-05-21 11-00-08$IIMHU,86.8,22.8,25.0,C*04
2020-05-21 11-00-08$IIMMB,3.0,I,0.0,B*4A
2020-05-21 11-00-08$INHBT,1,A,8*3D
2020-05-21 11-00-08$IIMTA,27.4,C*04
2020-05-21 11-00-08$INTHS,123.2,A*25
2020-05-21 11-00-08$IIMWD,324.0,T,87.2,M,29.2,N,15.0,M*71
2020-05-21 11-00-08$IIMWV,324.0,R,15.0,M,A*0F
2020-05-21 11-00-08$IIMWV,324.0,T,15.0,M,A*09
2020-05-21 11-00-08$IIRAI,0.00,60,0.00,A*1D
2020-05-21 11-00-08$IIVWR,36.0,L,29.2,N,15.0,M,0.0,K*6F
2020-05-21 11-00-08$IIVWT,36.0,L,19.5,N,10.0,M,0.0,K*68
2020-05-21 11-00-08$HEHCR,123.2,A,S,-00.5*5C
2020-05-21 11-00-08$HEHDT,123.2,T*2D
2020-05-21 11-00-08$TIROT,0000.0,A*0B
2020-05-21 11-00-08$TIROT,0000.0,A*0B
2020-05-21 11-00-08$GPAPB,A,A,,,N,,,,T,,,T,,,A*67
2020-05-21 11-00-08$GPDTM,W84,,0.0,N,0.0,E,+0.0,W84*44
2020-05-21 11-00-08$GPGGA,025952.29,0228.5623,S,03443.9306,W,1,09,01,+0046,M,-008,M,,*4D
2020-05-21 11-00-08$GPGLL,0228.5623,S,03443.9306,W,025952.29,A,A*62
2020-05-21 11-00-08$GPRMB,A,,,,,,,,,,,,,A*4A
2020-05-21 11-00-08$GPRMC,025952.29,A,0228.5623,S,03443.9306,W,013.6,127.2,210520,20.,W,A*28
2020-05-21 11-00-08$GPVTG,127.2,T,127.2,M,013.6,N,025.2,K,A*22
2020-05-21 11-00-08$GPZDA,025954.00,21,05,2020,01,00*6E
2020-05-21 11-00-09$GPGGA,025951.29,0228.5600,S,03443.9337,W,1,09,01,+0046,M,-008,M,,*4D
2020-05-21 11-00-09$HEHDT,123.2,T*2D
2020-05-21 11-00-09$WIMWD,113.3,T,,,007.7,N,,M*17
2020-05-21 11-00-09$WIMWV,351.0,T,011.7,N,A*25
2020-05-21 11-00-09$WIMWV,358.0,R,025.1,N,A*2B
2020-05-21 11-00-09$AGHTD,V,1.7,R,S,T,15.0,10.0,,10.00,125.0,,,T,A,A,,123.19*19
2020-05-21 11-00-09$AGROR,1.7,A,,V,B*18
2020-05-21 11-00-09$AGRSA,2.1,A,,V*7C
2020-05-21 11-00-09$PYDKN,NF COMMAND,V,,,*5D
2020-05-21 11-00-09!AIVDO,1,1,,,177:=V0028MQ0SevUDjDv3o`04Cd,0*35
2020-05-21 11-00-09$VDVBW,014.31,,A,00.00,00.00,V,,V,00.00,V*71
2020-05-21 11-00-09$VDVLW,9461.15,N,8610.03,N*5D
2020-05-21 11-00-09$INHBT,1,A,9*3C
2020-05-21 11-00-09$INWPL,3208.107,N,08108.501,W,001*72
2020-05-21 11-00-09$INWPL,3208.333,N,08108.562,W,000*73
2020-05-21 11-00-09$IIMHU,86.8,22.8,25.0,C*04
2020-05-21 11-00-09$IIMMB,3.0,I,0.0,B*4A
2020-05-21 11-00-09$IIMTA,27.4,C*04
2020-05-21 11-00-09$IIMWD,324.0,T,87.2,M,29.2,N,15.0,M*71
2020-05-21 11-00-09$IIMWV,324.0,R,15.0,M,A*0F
2020-05-21 11-00-09$IIMWV,324.0,T,15.0,M,A*09
2020-05-21 11-00-09$IIRAI,0.00,60,0.00,A*1D
2020-05-21 11-00-09$IIVWR,36.0,L,29.2,N,15.0,M,0.0,K*6F
2020-05-21 11-00-09$IIVWT,36.0,L,19.5,N,10.0,M,0.0,K*68
2020-05-21 11-00-09$HEHCR,123.2,A,S,-00.5*5C
2020-05-21 11-00-09$HEHDT,123.2,T*2D
2020-05-21 11-00-09$TIROT,0000.0,A*0B
2020-05-21 11-00-09$TIROT,0000.0,A*0B
2020-05-21 11-00-10$GPAPB,A,A,,,N,,,,T,,,T,,,A*67
2020-05-21 11-00-10$GPDTM,W84,,0.0,N,0.0,E,+0.0,W84*44
2020-05-21 11-00-10$GPGGA,025953.29,0228.5647,S,03443.9277,W,1,09,01,+0046,M,-008,M,,*49
2020-05-21 11-00-10$GPGLL,0228.5647,S,03443.9277,W,025953.29,A,A*66
2020-05-21 11-00-10$GPRMB,A,,,,,,,,,,,,,A*4A
2020-05-21 11-00-10$GPRMC,025953.29,A,0228.5647,S,03443.9277,W,013.6,127.2,210520,20.,W,A*2C
2020-05-21 11-00-10$GPVTG,127.2,T,127.2,M,013.6,N,025.2,K,A*22
2020-05-21 11-00-10$GPZDA,025955.00,21,05,2020,01,00*6F
2020-05-21 11-00-10$GPGGA,025952.29,0228.5623,S,03443.9306,W,1,09,01,+0046,M,-008,M,,*4D
2020-05-21 11-00-10$HEHDT,123.2,T*2D
2020-05-21 11-00-10$WIMWD,114.2,T,,,011.7,N,,M*16
2020-05-21 11-00-10$WIMWV,319.5,T,014.5,N,A*2B
2020-05-21 11-00-10$WIMWV,341.0,R,026.0,N,A*21
2020-05-21 11-00-10$AGHTD,V,1.7,R,S,T,15.0,10.0,,10.00,125.0,,,T,A,A,,123.19*19
2020-05-21 11-00-10$AGROR,1.7,A,,V,B*18
2020-05-21 11-00-10$AGRSA,2.1,A,,V*7C
2020-05-21 11-00-10$PYDKN,NF COMMAND,V,,,*5D
2020-05-21 11-00-10!AIVDO,1,1,,,177:=V0028MQ0TWvUDdDv3ob04Cd,0*0C
2020-05-21 11-00-10$VDVBW,014.30,,A,00.00,00.00,V,,V,00.00,V*70
2020-05-21 11-00-10$VDVLW,9461.16,N,8610.03,N*5E
2020-05-21 11-00-10$INHBT,1,A,0*35
2020-05-21 11-00-10$INWPL,3207.347,N,08108.019,W,004*72
2020-05-21 11-00-10$INWPL,3207.682,N,08108.201,W,003*72
2020-05-21 11-00-10$INWPL,3207.927,N,08108.439,W,002*7E
2020-05-21 11-00-10$IIMHU,86.8,22.8,25.0,C*04
2020-05-21 11-00-10$IIMMB,3.0,I,0.0,B*4A
2020-05-21 11-00-10$IIMTA,27.4,C*04
2020-05-21 11-00-10$IIMWD,324.0,T,87.2,M,29.0,N,14.9,M*7B
2020-05-21 11-00-10$IIMWV,324.0,R,14.9,M,A*07
2020-05-21 11-00-10$IIMWV,324.0,T,14.9,M,A*01
2020-05-21 11-00-10$IIRAI,0.00,60,0.00,A*1D
2020-05-21 11-00-10$IIVWR,36.0,L,29.0,N,14.9,M,0.0,K*65
2020-05-21 11-00-10$IIVWT,36.0,L,19.3,N,9.9,M,0.0,K*5F
2020-05-21 11-00-10$HEHCR,123.2,A,S,-00.5*5C
2020-05-21 11-00-10$HEHDT,123.2,T*2D
2020-05-21 11-00-10$TIROT,0000.0,A*0B
2020-05-21 11-00-10$TIROT,0000.0,A*0B
2020-05-21 11-00-11$GPAPB,A,A,,,N,,,,T,,,T,,,A*67
2020-05-21 11-00-11$GPDTM,W84,,0.0,N,0.0,E,+0.0,W84*44
2020-05-21 11-00-11$GPGGA,025954.29,0228.5669,S,03443.9246,W,1,09,01,+0046,M,-008,M,,*40
2020-05-21 11-00-11$GPGLL,0228.5669,S,03443.9246,W,025954.29,A,A*6F
2020-05-21 11-00-11$GPRMB,A,,,,,,,,,,,,,A*4A
2020-05-21 11-00-11$GPRMC,025954.29,A,0228.5669,S,03443.9246,W,013.6,127.2,210520,20.,W,A*25
2020-05-21 11-00-11$GPVTG,127.2,T,127.2,M,013.6,N,025.2,K,A*22
2020-05-21 11-00-11$GPZDA,025956.00,21,05,2020,01,00*6C
2020-05-21 11-00-11$GPGGA,025953.29,0228.5647,S,03443.9277,W,1,09,01,+0046,M,-008,M,,*49
2020-05-21 11-00-11$HEHDT,123.2,T*2D
2020-05-21 11-00-11$WIMWD,082.7,T,,,014.5,N,,M*1A
2020-05-21 11-00-11$WIMWV,326.6,T,014.0,N,A*21
2020-05-21 11-00-11$WIMWV,345.0,R,026.1,N,A*24
2020-05-21 11-00-11$AGHTD,V,1.7,R,S,T,15.0,10.0,,10.00,125.0,,,T,A,A,,123.18*18
2020-05-21 11-00-11$AGROR,1.7,A,,V,B*18
2020-05-21 11-00-11$AGRSA,2.1,A,,V*7C
2020-05-21 11-00-11$PYDKN,NF COMMAND,V,,,*5D
2020-05-21 11-00-11!AIVDO,1,1,,,177:=V0wR8MQ0UUvUDVlv3od04Cd,0*34
2020-05-21 11-00-11$VDVBW,014.30,,A,00.00,00.00,V,,V,00.00,V*70
2020-05-21 11-00-11$VDVLW,9461.16,N,8610.03,N*5E
2020-05-21 11-00-11$INWPL,3205.087,N,08105.711,W,009*70
2020-05-21 11-00-11$INWPL,3205.624,N,08106.269,W,008*77
2020-05-21 11-00-11$INWPL,3206.389,N,08107.159,W,007*78
2020-05-21 11-00-11$INWPL,3206.802,N,08107.542,W,006*7F
2020-05-21 11-00-11$IIMHU,86.8,22.8,25.0,C*04
2020-05-21 11-00-11$IITRM,-1.3,0.0,0.0,0.0,V,,,,,*32
2020-05-21 11-00-11$IIMMB,3.0,I,0.0,B*4A
2020-05-21 11-00-11$IIMTA,27.4,C*04
2020-05-21 11-00-11$IIMWD,324.0,T,87.2,M,29.0,N,14.9,M*7B
2020-05-21 11-00-11$IIMWV,324.0,R,14.9,M,A*07
2020-05-21 11-00-11$IIMWV,324.0,T,14.9,M,A*01
2020-05-21 11-00-11$IIRAI,0.00,60,0.00,A*1D
2020-05-21 11-00-11$IIVWR,36.0,L,29.0,N,14.9,M,0.0,K*65
2020-05-21 11-00-11$IIVWT,36.0,L,19.3,N,9.9,M,0.0,K*5F
2020-05-21 11-00-11$IIHRM,0.6,0.0,0.0,0.0,V,,,,,*07
2020-05-21 11-00-11$IITRM,-1.2,0.0,0.0,0.0,V,,,,,*33
2020-05-21 11-00-11$HEHCR,123.2,A,S,-00.5*5C
2020-05-21 11-00-11$HEHDT,123.2,T*2D
2020-05-21 11-00-11$TIROT,-000.5,A*13
2020-05-21 11-00-11$TIROT,-000.7,A*11
2020-05-21 11-00-11$IIHRM,0.7,0.0,0.0,0.0,V,,,,,*06
2020-05-21 11-00-11$IITRM,-1.4,0.0,0.0,0.0,V,,,,,*35
2020-05-21 11-00-11$IIHRM,0.5,0.0,0.0,0.0,V,,,,,*04
2020-05-21 11-00-12$GPAPB,A,A,,,N,,,,T,,,T,,,A*67
2020-05-21 11-00-12$GPDTM,W84,,0.0,N,0.0,E,+0.0,W84*44
2020-05-21 11-00-12$GPGGA,025955.29,0228.5692,S,03443.9216,W,1,09,01,+0046,M,-008,M,,*40
2020-05-21 11-00-12$GPGLL,0228.5692,S,03443.9216,W,025955.29,A,A*6F
2020-05-21 11-00-12$GPRMB,A,,,,,,,,,,,,,A*4A
2020-05-21 11-00-12$GPRMC,025955.29,A,0228.5692,S,03443.9216,W,013.6,127.2,210520,20.,W,A*25
2020-05-21 11-00-12$GPVTG,127.2,T,127.2,M,013.6,N,025.2,K,A*22
2020-05-21 11-00-12$IITRM,-1.4,0.0,0.0,0.0,V,,,,,*35
2020-05-21 11-00-12$GPZDA,025957.00,21,05,2020,01,00*6D
2020-05-21 11-00-12$IIHRM,0.4,0.0,0.0,0.0,V,,,,,*05
2020-05-21 11-00-12$IITRM,-1.3,0.0,0.0,0.0,V,,,,,*32
2020-05-21 11-00-12$IIHRM,0.3,0.0,0.0,0.0,V,,,,,*02
2020-05-21 11-00-12$GPGGA,025954.29,0228.5669,S,03443.9246,W,1,09,01,+0046,M,-008,M,,*40
2020-05-21 11-00-12$HEHDT,123.1,T*2E
2020-05-21 11-00-12$WIMWD,089.8,T,,,014.0,N,,M*1B
2020-05-21 11-00-12$IITRM,-1.2,0.0,0.0,0.0,V,,,,,*33
2020-05-21 11-00-12$WIMWV,335.1,T,007.3,N,A*25
2020-05-21 11-00-12$WIMWV,354.0,R,020.3,N,A*20
2020-05-21 11-00-12$IIHRM,0.2,0.0,0.0,0.0,V,,,,,*03
2020-05-21 11-00-12$AGHTD,V,1.7,R,S,T,15.0,10.0,,10.00,125.0,,,T,A,A,,123.15*15
2020-05-21 11-00-12$IITRM,-1.4,0.0,0.0,0.0,V,,,,,*35
2020-05-21 11-00-12$AGROR,1.7,A,,V,B*18
2020-05-21 11-00-12$AGRSA,2.0,A,,V*7D
2020-05-21 11-00-12$PYDKN,NF COMMAND,V,,,*5D
2020-05-21 11-00-12$IIHRM,0.1,0.0,0.0,0.0,V,,,,,*00
2020-05-21 11-00-12$IITRM,-1.4,0.0,0.0,0.0,V,,,,,*35
2020-05-21 11-00-12$IIHRM,-0.1,0.0,0.0,0.0,V,,,,,*2D
2020-05-21 11-00-12!AIVDO,1,1,,,177:=V0w28MQ0VQvUDQ4v3of04Cd,0*0E
2020-05-21 11-00-12$IITRM,-1.3,0.0,0.0,0.0,V,,,,,*32
2020-05-21 11-00-12$IIHRM,-0.1,0.0,0.0,0.0,V,,,,,*2D
2020-05-21 11-00-12$VDVBW,014.31,,A,00.00,00.00,V,,V,00.00,V*71
2020-05-21 11-00-12$VDVLW,9461.16,N,8610.04,N*59
2020-05-21 11-00-12$IITRM,-1.3,0.0,0.0,0.0,V,,,,,*32
2020-05-21 11-00-12$IIHRM,-0.1,0.0,0.0,0.0,V,,,,,*2D
2020-05-21 11-00-12$INWPL,3204.735,N,08104.320,W,011*71
2020-05-21 11-00-12$INWPL,3204.741,N,08104.548,W,010*7B
2020-05-21 11-00-12$INWPL,3204.808,N,08103.078,W,013*7B
2020-05-21 11-00-12$INWPL,3204.858,N,08103.639,W,012*7C
2020-05-21 11-00-12$IITRM,-1.4,0.0,0.0,0.0,V,,,,,*35
2020-05-21 11-00-12$IIMHU,86.8,22.8,25.0,C*04
2020-05-21 11-00-12$IIMMB,3.0,I,0.0,B*4A
2020-05-21 11-00-12$IIMTA,27.4,C*04
2020-05-21 11-00-12$IIMWD,324.0,T,87.2,M,28.8,N,14.8,M*73
2020-05-21 11-00-12$IIMWV,324.0,R,14.8,M,A*06
2020-05-21 11-00-12$IIMWV,324.0,T,14.8,M,A*00
2020-05-21 11-00-12$IIRAI,0.00,60,0.00,A*1D
2020-05-21 11-00-12$IIVWR,36.0,L,28.8,N,14.8,M,0.0,K*6D
2020-05-21 11-00-12$IIVWT,36.0,L,19.1,N,9.8,M,0.0,K*5C
2020-05-21 11-00-12$IIHRM,-0.1,0.0,0.0,0.0,V,,,,,*2D
2020-05-21 11-00-12$IITRM,-1.4,0.0,0.0,0.0,V,,,,,*35
2020-05-21 11-00-12$HEHCR,123.1,A,S,-00.5*5F
2020-05-21 11-00-12$HEHDT,123.1,T*2E
2020-05-21 11-00-12$PYDK,HE,A,A,2,1,0,A*55
2020-05-21 11-00-12$TIROT,-001.1,A*16
2020-05-21 11-00-12$IIHRM,-0.1,0.0,0.0,0.0,V,,,,,*2D
2020-05-21 11-00-12$IITRM,-1.2,0.0,0.0,0.0,V,,,,,*33
2020-05-21 11-00-12$IIHRM,0.1,0.0,0.0,0.0,V,,,,,*00
2020-05-21 11-00-13$GPAPB,A,A,,,N,,,,T,,,T,,,A*67
2020-05-21 11-00-13$GPDTM,W84,,0.0,N,0.0,E,+0.0,W84*44
2020-05-21 11-00-13$GPGGA,025956.29,0228.5716,S,03443.9186,W,1,09,01,+0046,M,-008,M,,*44
2020-05-21 11-00-13$GPGLL,0228.5716,S,03443.9186,W,025956.29,A,A*6B
2020-05-21 11-00-13$GPRMB,A,,,,,,,,,,,,,A*4A
2020-05-21 11-00-13$GPRMC,025956.29,A,0228.5716,S,03443.9186,W,013.6,127.2,210520,20.,W,A*21
2020-05-21 11-00-13$GPVTG,127.2,T,127.2,M,013.6,N,025.3,K,A*23
2020-05-21 11-00-13$GPZDA,025958.00,21,05,2020,01,00*62
2020-05-21 11-00-13$IITRM,-1.2,0.0,0.0,0.0,V,,,,,*33
2020-05-21 11-00-13$IIHRM,0.2,0.0,0.0,0.0,V,,,,,*03
2020-05-21 11-00-13$IITRM,-1.3,0.0,0.0,0.0,V,,,,,*32
2020-05-21 11-00-13$IIHRM,0.2,0.0,0.0,0.0,V,,,,,*03
2020-05-21 11-00-13$GPGGA,025955.29,0228.5692,S,03443.9216,W,1,09,01,+0046,M,-008,M,,*40
2020-05-21 11-00-13$HEHDT,123.1,T*2E
2020-05-21 11-00-13$WIMWD,098.2,T,,,007.3,N,,M*10
2020-05-21 11-00-13$WIMWV,338.4,T,014.1,N,A*2D
2020-05-21 11-00-13$WIMWV,351.0,R,027.0,N,A*21
2020-05-21 11-00-13$IITRM,-1.4,0.0,0.0,0.0,V,,,,,*35
2020-05-21 11-00-13$IIHRM,0.2,0.0,0.0,0.0,V,,,,,*03
2020-05-21 11-00-13$AGHTD,V,1.7,R,S,T,15.0,10.0,,10.00,125.0,,,T,A,A,,123.13*13
2020-05-21 11-00-13$AGROR,1.7,A,,V,B*18
2020-05-21 11-00-13$AGRSA,2.0,A,,V*7D
2020-05-21 11-00-13$PYDKN,NF COMMAND,V,,,*5D
2020-05-21 11-00-13$IITRM,-1.3,0.0,0.0,0.0,V,,,,,*32
2020-05-21 11-00-13$IIHRM,0.2,0.0,0.0,0.0,V,,,,,*03
2020-05-21 11-00-13$IITRM,-1.3,0.0,0.0,0.0,V,,,,,*32
2020-05-21 11-00-13$IIHRM,0.1,0.0,0.0,0.0,V,,,,,*00
2020-05-21 11-00-13!AIVDO,1,1,,A,177:=V0w28MQ0VQvUDQ4v3of04Cd,0*4F
2020-05-21 11-00-13$IITRM,-1.5,0.0,0.0,0.0,V,,,,,*34
2020-05-21 11-00-13$VDVBW,014.31,,A,00.00,00.00,V,,V,00.00,V*71
2020-05-21 11-00-13$VDVLW,9461.17,N,8610.04,N*58
2020-05-21 11-00-13$IIHRM,0.3,0.0,0.0,0.0,V,,,,,*02
2020-05-21 11-00-13$IITRM,-1.6,0.0,0.0,0.0,V,,,,,*37
2020-05-21 11-00-13$INWPL,3205.277,N,08101.500,W,015*76
2020-05-21 11-00-13$INWPL,3205.485,N,08101.247,W,016*7A
2020-05-21 11-00-13$INWPL,3205.872,N,08100.970,W,017*71
2020-05-21 11-00-13$INWPL,3206.066,N,08100.677,W,018*78
2020-05-21 11-00-13$IIHRM,0.2,0.0,0.0,0.0,V,,,,,*03
2020-05-21 11-00-13$IIMHU,85.8,22.6,24.8,C*00
2020-05-21 11-00-13$IIMMB,3.0,I,0.0,B*4A
2020-05-21 11-00-13$IITRM,-1.4,0.0,0.0,0.0,V,,,,,*35
2020-05-21 11-00-13$IIMTA,27.4,C*04
2020-05-21 11-00-13$IIMWD,324.0,T,87.1,M,28.6,N,14.7,M*71
2020-05-21 11-00-13$IIMWV,324.0,R,14.7,M,A*09
2020-05-21 11-00-13$IIMWV,324.0,T,14.7,M,A*0F
2020-05-21 11-00-13$IIRAI,0.00,60,0.00,A*1D
2020-05-21 11-00-13$IIVWR,36.0,L,28.6,N,14.7,M,0.0,K*6C
2020-05-21 11-00-13$IIVWT,36.0,L,19.0,N,9.8,M,0.0,K*5D
2020-05-21 11-00-13$IIHRM,0.1,0.0,0.0,0.0,V,,,,,*00
2020-05-21 11-00-13$HEHCR,123.1,A,S,-00.5*5F
2020-05-21 11-00-13$HEHDT,123.1,T*2E
2020-05-21 11-00-13$HEHDT,123.1,T*2E
2020-05-21 11-00-13$TIROT,-000.8,A*1E
2020-05-21 11-00-13$IITRM,-1.4,0.0,0.0,0.0,V,,,,,*35
2020-05-21 11-00-13$IIHRM,0.3,0.0,0.0,0.0,V,,,,,*02
2020-05-21 11-00-14$IITRM,-1.5,0.0,0.0,0.0,V,,,,,*34
2020-05-21 11-00-14$IIHRM,0.3,0.0,0.0,0.0,V,,,,,*02
2020-05-21 11-00-14$GPAPB,A,A,,,N,,,,T,,,T,,,A*67
2020-05-21 11-00-14$GPDTM,W84,,0.0,N,0.0,E,+0.0,W84*44
2020-05-21 11-00-14$GPGGA,025957.29,0228.5738,S,03443.9156,W,1,09,01,+0046,M,-008,M,,*44
2020-05-21 11-00-14$GPGLL,0228.5738,S,03443.9156,W,025957.29,A,A*6B
2020-05-21 11-00-14$GPRMB,A,,,,,,,,,,,,,A*4A
2020-05-21 11-00-14$GPRMC,025957.29,A,0228.5738,S,03443.9156,W,013.6,127.2,210520,20.,W,A*21
2020-05-21 11-00-14$GPVTG,127.2,T,127.2,M,013.6,N,025.2,K,A*22
2020-05-21 11-00-14$GPZDA,025959.00,21,05,2020,01,00*63
2020-05-21 11-00-14$IITRM,-1.4,0.0,0.0,0.0,V,,,,,*35
2020-05-21 11-00-14$IIHRM,0.1,0.0,0.0,0.0,V,,,,,*00
2020-05-21 11-00-14$IITRM,-1.2,0.0,0.0,0.0,V,,,,,*33
2020-05-21 11-00-14$IIHRM,0.2,0.0,0.0,0.0,V,,,,,*03
2020-05-21 11-00-14$GPGGA,025956.29,0228.5716,S,03443.9186,W,1,09,01,+0046,M,-008,M,,*44
2020-05-21 11-00-14$HEHDT,123.1,T*2E
2020-05-21 11-00-14$WIMWD,101.5,T,,,014.1,N,,M*16
2020-05-21 11-00-14$WIMWV,324.0,T,010.2,N,A*23
2020-05-21 11-00-14$WIMWV,347.0,R,022.4,N,A*27
2020-05-21 11-00-14$IITRM,-1.2,0.0,0.0,0.0,V,,,,,*33
2020-05-21 11-00-14$IIHRM,0.2,0.0,0.0,0.0,V,,,,,*03
2020-05-21 11-00-14$AGHTD,V,1.8,R,S,T,15.0,10.0,,10.00,125.0,,,T,A,A,,123.12*1D
2020-05-21 11-00-14$AGROR,1.8,A,,V,B*17
2020-05-21 11-00-14$AGRSA,1.9,A,,V*77
2020-05-21 11-00-14$PYDKN,NF COMMAND,V,,,*5D
2020-05-21 11-00-14$IITRM,-1.4,0.0,0.0,0.0,V,,,,,*35
2020-05-21 11-00-14$IIHRM,0.1,0.0,0.0,0.0,V,,,,,*00
2020-05-21 11-00-14!AIVDO,1,1,,,177:=V0vj8MQ0`IvUDETv3ol04H0,0*58
2020-05-21 11-00-14$VDVBW,014.32,,A,00.00,00.00,V,,V,00.00,V*72
2020-05-21 11-00-14$VDVLW,9461.17,N,8610.05,N*59
2020-05-21 11-00-14$INHBT,1,A,3*36
2020-05-21 11-00-14$INWPL,3204.720,N,08059.074,W,021*7D
2020-05-21 11-00-14$INWPL,3205.682,N,08059.614,W,020*74
2020-05-21 11-00-14$INWPL,3206.056,N,08100.200,W,019*7E
2020-05-21 11-00-14$IIMHU,87.3,23.0,25.1,C*06
2020-05-21 11-00-14$IIMMB,3.0,I,0.0,B*4A
2020-05-21 11-00-14$IIMTA,27.4,C*04
2020-05-21 11-00-14$IIMWD,324.0,T,87.1,M,28.4,N,14.6,M*72
2020-05-21 11-00-14$IIMWV,324.0,R,14.6,M,A*08
2020-05-21 11-00-14$IIMWV,324.0,T,14.6,M,A*0E
2020-05-21 11-00-14$IIRAI,0.00,60,0.00,A*1D
2020-05-21 11-00-14$IIVWR,36.0,L,28.4,N,14.6,M,0.0,K*6F
2020-05-21 11-00-14$IIVWT,36.0,L,18.8,N,9.7,M,0.0,K*5B
2020-05-21 11-00-14$HEHCR,123.1,A,S,-00.5*5F
2020-05-21 11-00-14$HEHDT,123.1,T*2E
2020-05-21 11-00-14$HEHDT,123.1,T*2E
2020-05-21 11-00-14$TIROT,-000.5,A*13
2020-05-21 11-00-15$IITRM,-1.3,0.0,0.0,0.0,V,,,,,*32
2020-05-21 11-00-15$IIHRM,-0.0,0.0,0.0,0.0,V,,,,,*2C
2020-05-21 11-00-15$GPAPB,A,A,,,N,,,,T,,,T,,,A*67
2020-05-21 11-00-15$GPDTM,W84,,0.0,N,0.0,E,+0.0,W84*44
2020-05-21 11-00-15$GPGGA,025958.29,0228.5761,S,03443.9126,W,1,09,01,+0046,M,-008,M,,*40
2020-05-21 11-00-15$GPGLL,0228.5761,S,03443.9126,W,025958.29,A,A*6F
2020-05-21 11-00-15$GPRMB,A,,,,,,,,,,,,,A*4A
2020-05-21 11-00-15$GPRMC,025958.29,A,0228.5761,S,03443.9126,W,013.6,127.2,210520,20.,W,A*25
2020-05-21 11-00-15$GPVTG,127.2,T,127.2,M,013.6,N,025.2,K,A*22
2020-05-21 11-00-15$GPZDA,030000.00,21,05,2020,01,00*62
2020-05-21 11-00-15$GPGGA,025957.29,0228.5738,S,03443.9156,W,1,09,01,+0046,M,-008,M,,*44
2020-05-21 11-00-15$HEHDT,123.1,T*2E
2020-05-21 11-00-15$WIMWD,087.1,T,,,010.2,N,,M*1A
2020-05-21 11-00-15$WIMWV,350.3,T,008.0,N,A*28
2020-05-21 11-00-15$WIMWV,359.0,R,021.5,N,A*2A
2020-05-21 11-00-15$AGHTD,V,1.9,R,S,T,15.0,10.0,,10.00,125.0,,,T,A,A,,123.12*1C
2020-05-21 11-00-15$AGROR,1.9,A,,V,B*16
2020-05-21 11-00-15$AGRSA,1.9,A,,V*77
2020-05-21 11-00-15$PYDKN,NF COMMAND,V,,,*5D
2020-05-21 11-00-15$IITRM,-1.1,0.0,0.0,0.0,V,,,,,*30
2020-05-21 11-00-15$IIHRM,0.1,0.0,0.0,0.0,V,,,,,*00
2020-05-21 11-00-15!AIVDO,1,1,,,177:=V0w28MQ0`IvUDETv3oj04H0,0*07
2020-05-21 11-00-15$VDVBW,014.33,,A,00.00,00.00,V,,V,00.00,V*73
2020-05-21 11-00-15$VDVLW,9461.18,N,8610.05,N*56
2020-05-21 11-00-15$INHBT,1,A,4*31
2020-05-21 11-00-15$INWPL,3202.461,N,08055.513,W,025*71
2020-05-21 11-00-15$INWPL,3204.144,N,08057.255,W,024*73
2020-05-21 11-00-15$INWPL,3204.327,N,08057.657,W,023*75
2020-05-21 11-00-15$IIMHU,87.3,23.0,25.1,C*06
2020-05-21 11-00-15$IIMMB,3.0,I,0.0,B*4A
2020-05-21 11-00-15$IIMTA,27.4,C*04
2020-05-21 11-00-15$IIMWD,324.0,T,87.1,M,28.6,N,14.7,M*71
2020-05-21 11-00-15$IIMWV,324.0,R,14.7,M,A*09
2020-05-21 11-00-15$IIMWV,324.0,T,14.7,M,A*0F
2020-05-21 11-00-15$IIRAI,0.00,60,0.00,A*1D
2020-05-21 11-00-15$IIVWR,36.0,L,28.6,N,14.7,M,0.0,K*6C
2020-05-21 11-00-15$IIVWT,36.0,L,19.0,N,9.8,M,0.0,K*5D
2020-05-21 11-00-15$HEHCR,123.1,A,S,-00.5*5F
2020-05-21 11-00-15$HEHDT,123.1,T*2E
2020-05-21 11-00-15$HEHDT,123.1,T*2E
2020-05-21 11-00-15$TIROT,-000.3,A*15
2020-05-21 11-00-16$IITRM,-1.3,0.0,0.0,0.0,V,,,,,*32
2020-05-21 11-00-16$IIHRM,0.1,0.0,0.0,0.0,V,,,,,*00
2020-05-21 11-00-16$GPAPB,A,A,,,N,,,,T,,,T,,,A*67
2020-05-21 11-00-16$GPDTM,W84,,0.0,N,0.0,E,+0.0,W84*44
2020-05-21 11-00-16$GPGGA,025959.29,0228.5784,S,03443.9097,W,1,09,01,+0046,M,-008,M,,*41
2020-05-21 11-00-16$GPGLL,0228.5784,S,03443.9097,W,025959.29,A,A*6E
2020-05-21 11-00-16$GPRMB,A,,,,,,,,,,,,,A*4A
2020-05-21 11-00-16$GPRMC,025959.29,A,0228.5784,S,03443.9097,W,013.6,127.2,210520,20.,W,A*24
2020-05-21 11-00-16$GPVTG,127.2,T,127.2,M,013.6,N,025.2,K,A*22
2020-05-21 11-00-16$GPZDA,030001.00,21,05,2020,01,00*63
2020-05-21 11-00-16$GPGGA,025958.29,0228.5761,S,03443.9126,W,1,09,01,+0046,M,-008,M,,*40
2020-05-21 11-00-16$HEHDT,123.1,T*2E
2020-05-21 11-00-16$WIMWD,113.4,T,,,008.0,N,,M*18
2020-05-21 11-00-16$WIMWV,330.6,T,012.6,N,A*26
2020-05-21 11-00-16$WIMWV,348.0,R,025.1,N,A*2A
2020-05-21 11-00-16$AGHTD,V,2.0,R,S,T,15.0,10.0,,10.00,125.0,,,T,A,A,,123.12*16
2020-05-21 11-00-16$AGROR,2.0,A,,V,B*1C
2020-05-21 11-00-16$AGRSA,2.1,A,,V*7C
2020-05-21 11-00-16$PYDKN,NF COMMAND,V,,,*5D
2020-05-21 11-00-16$IITRM,-1.4,0.0,0.0,0.0,V,,,,,*35
2020-05-21 11-00-16$IIHRM,0.1,0.0,0.0,0.0,V,,,,,*00
2020-05-21 11-00-16!AIVDO,1,1,,,177:=V0wB8MQ0aEvUD?lv3ol04H0,0*3E
2020-05-21 11-00-16$VDVBW,014.34,,A,00.00,00.00,V,,V,00.00,V*74
2020-05-21 11-00-16$VDVLW,9461.18,N,8610.05,N*56
2020-05-21 11-00-16$INHBT,1,A,5*30
2020-05-21 11-00-16$INWPL,3202.071,N,08053.096,W,028*77
2020-05-21 11-00-16$INWPL,3202.081,N,08053.666,W,027*7E
2020-05-21 11-00-16$INWPL,3202.291,N,08050.702,W,029*73
2020-05-21 11-00-16$IIMHU,87.3,23.0,25.1,C*06
2020-05-21 11-00-16$IIMMB,3.0,I,0.0,B*4A
2020-05-21 11-00-16$IIMTA,27.4,C*04
2020-05-21 11-00-16$IIMWD,324.0,T,87.1,M,28.4,N,14.6,M*72
2020-05-21 11-00-16$IIMWV,324.0,R,14.6,M,A*08
2020-05-21 11-00-16$IIMWV,324.0,T,14.6,M,A*0E
2020-05-21 11-00-16$IIRAI,0.00,60,0.00,A*1D
2020-05-21 11-00-16$IIVWR,36.0,L,28.4,N,14.6,M,0.0,K*6F
2020-05-21 11-00-16$IIVWT,36.0,L,18.8,N,9.7,M,0.0,K*5B
2020-05-21 11-00-16$HEHCR,123.1,A,S,-00.5*5F
2020-05-21 11-00-16$HEHDT,123.1,T*2E
2020-05-21 11-00-16$HEHDT,123.1,T*2E
2020-05-21 11-00-16$TIROT,-000.2,A*14
2020-05-21 11-00-17$IITRM,-1.4,0.0,0.0,0.0,V,,,,,*35
2020-05-21 11-00-17$IIHRM,0.2,0.0,0.0,0.0,V,,,,,*03
2020-05-21 11-00-17$GPAPB,A,A,,,N,,,,T,,,T,,,A*67
2020-05-21 11-00-17$GPDTM,W84,,0.0,N,0.0,E,+0.0,W84*44
2020-05-21 11-00-17$GPGGA,030000.29,0228.5807,S,03443.9067,W,1,09,01,+0046,M,-008,M,,*4B
2020-05-21 11-00-17$GPGLL,0228.5807,S,03443.9067,W,030000.29,A,A*64
2020-05-21 11-00-17$GPRMB,A,,,,,,,,,,,,,A*4A
2020-05-21 11-00-17$GPRMC,030000.29,A,0228.5807,S,03443.9067,W,013.6,127.2,210520,20.,W,A*2E
2020-05-21 11-00-17$GPVTG,127.2,T,127.2,M,013.6,N,025.2,K,A*22
2020-05-21 11-00-17$GPZDA,030002.00,21,05,2020,01,00*60
2020-05-21 11-00-17$GPGGA,025959.29,0228.5784,S,03443.9097,W,1,09,01,+0046,M,-008,M,,*41
2020-05-21 11-00-17$HEHDT,123.1,T*2E
2020-05-21 11-00-17$WIMWD,079.1,T,,,009.2,N,,M*13
2020-05-21 11-00-17$WIMWV,316.0,T,009.2,N,A*2A
2020-05-21 11-00-17$WIMWV,345.0,R,020.9,N,A*2A
2020-05-21 11-00-17$AGHTD,V,2.1,R,S,T,15.0,10.0,,10.00,125.0,,,T,A,A,,123.12*17
2020-05-21 11-00-17$AGROR,2.1,A,,V,B*1D
2020-05-21 11-00-17$AGRSA,2.2,A,,V*7F
2020-05-21 11-00-17$PYDKN,NF COMMAND,V,,,*5D
2020-05-21 11-00-17$IITRM,-1.3,0.0,0.0,0.0,V,,,,,*32
2020-05-21 11-00-17$IIHRM,0.4,0.0,0.0,0.0,V,,,,,*05
2020-05-21 11-00-17$VDVBW,014.35,,A,00.00,00.00,V,,V,00.00,V*75
2020-05-21 11-00-17$VDVLW,9461.18,N,8610.06,N*55
2020-05-21 11-00-17!AIVDO,1,1,,,177:=V0wR8MQ0b?vUD:4v3on04H0,0*08
2020-05-21 11-00-17$INWPL,3159.588,N,08046.886,W,034*79
2020-05-21 11-00-17$INWPL,3159.825,N,08047.212,W,033*72
2020-05-21 11-00-17$INWPL,3201.753,N,08048.973,W,032*70
2020-05-21 11-00-17$INWPL,3202.010,N,08049.391,W,031*77
2020-05-21 11-00-17$IIMHU,87.3,23.0,25.1,C*06
2020-05-21 11-00-17$IIMMB,3.0,I,0.0,B*4A
2020-05-21 11-00-17$IIMTA,27.4,C*04
2020-05-21 11-00-17$IIMWD,324.0,T,87.1,M,28.4,N,14.6,M*72
2020-05-21 11-00-17$IIMWV,324.0,R,14.6,M,A*08
2020-05-21 11-00-17$IIMWV,324.0,T,14.6,M,A*0E
2020-05-21 11-00-17$IIRAI,0.00,60,0.00,A*1D
2020-05-21 11-00-17$IIVWR,36.0,L,28.4,N,14.6,M,0.0,K*6F
2020-05-21 11-00-17$IIVWT,36.0,L,18.8,N,9.7,M,0.0,K*5B
2020-05-21 11-00-17$HEHCR,123.1,A,S,-00.5*5F
2020-05-21 11-00-17$HEHDT,123.1,T*2E
2020-05-21 11-00-17$HEHDT,123.1,T*2E
2020-05-21 11-00-17$TIROT,-000.1,A*17
2020-05-21 11-00-18$IITRM,-1.4,0.0,0.0,0.0,V,,,,,*35
2020-05-21 11-00-18$IIHRM,0.2,0.0,0.0,0.0,V,,,,,*03
2020-05-21 11-00-18$GPAPB,A,A,,,N,,,,T,,,T,,,A*67
2020-05-21 11-00-18$GPDTM,W84,,0.0,N,0.0,E,+0.0,W84*44
2020-05-21 11-00-18$GPGGA,030001.29,0228.5830,S,03443.9037,W,1,09,01,+0046,M,-008,M,,*4B
2020-05-21 11-00-18$GPGLL,0228.5830,S,03443.9037,W,030001.29,A,A*64
2020-05-21 11-00-18$GPRMB,A,,,,,,,,,,,,,A*4A
2020-05-21 11-00-18$GPRMC,030001.29,A,0228.5830,S,03443.9037,W,013.6,127.2,210520,20.,W,A*2E
2020-05-21 11-00-18$GPVTG,127.2,T,127.2,M,013.6,N,025.2,K,A*22
2020-05-21 11-00-18$GPZDA,030003.00,21,05,2020,01,00*61
2020-05-21 11-00-18$GPGGA,030000.29,0228.5807,S,03443.9067,W,1,09,01,+0046,M,-008,M,,*4B
2020-05-21 11-00-18$HEHDT,123.2,T*2D
2020-05-21 11-00-18$WIMWD,102.7,T,,,013.2,N,,M*13
2020-05-21 11-00-18$WIMWV,339.6,T,013.2,N,A*2A
2020-05-21 11-00-18$WIMWV,352.0,R,026.2,N,A*21
2020-05-21 11-00-18$AGHTD,V,2.2,R,S,T,15.0,10.0,,10.00,125.0,,,T,A,A,,123.12*14
2020-05-21 11-00-18$AGROR,2.2,A,,V,B*1E
2020-05-21 11-00-18$AGRSA,2.4,A,,V*79
2020-05-21 11-00-18$PYDKN,NF COMMAND,V,,,*5D
2020-05-21 11-00-18$IITRM,-1.5,0.0,0.0,0.0,V,,,,,*34
2020-05-21 11-00-18$IIHRM,0.2,0.0,0.0,0.0,V,,,,,*03
2020-05-21 11-00-18$VDVBW,014.35,,A,00.00,00.00,V,,V,00.00,V*75
2020-05-21 11-00-18$VDVLW,9461.19,N,8610.06,N*54
2020-05-21 11-00-18!AIVDO,1,1,,,177:=V0wj8MQ0c;vUD4Dv3n004H0,0*14
2020-05-21 11-00-18!AIVDO,1,1,,,177:=V0wj8MQ0d7vUCvTv3n204H0,0*48
2020-05-21 11-00-18$INWPL,3155.839,N,08036.108,W,039*77
2020-05-21 11-00-18$INWPL,3156.119,N,08040.135,W,038*71
2020-05-21 11-00-18$INWPL,3157.282,N,08042.227,W,037*7C
2020-05-21 11-00-18$INWPL,3157.990,N,08043.032,W,036*72
2020-05-21 11-00-18$IIMHU,87.3,23.0,25.1,C*06
2020-05-21 11-00-18$IIMMB,3.0,I,0.0,B*4A
2020-05-21 11-00-18$IIMTA,27.4,C*04
2020-05-21 11-00-18$IIMWD,324.0,T,87.1,M,28.4,N,14.6,M*72
2020-05-21 11-00-18$IIMWV,324.0,R,14.6,M,A*08
2020-05-21 11-00-18$IIMWV,324.0,T,14.6,M,A*0E
2020-05-21 11-00-18$IIRAI,0.00,60,0.00,A*1D
2020-05-21 11-00-18$IIVWR,36.0,L,28.4,N,14.6,M,0.0,K*6F
2020-05-21 11-00-18$IIVWT,36.0,L,18.8,N,9.7,M,0.0,K*5B
2020-05-21 11-00-18$HEHCR,123.2,A,S,-00.5*5C
2020-05-21 11-00-18$HEHDT,123.2,T*2D
2020-05-21 11-00-18$HEHDT,123.2,T*2D
2020-05-21 11-00-18$TIROT,0000.2,A*09
2020-05-21 11-00-19$IITRM,-1.4,0.0,0.0,0.0,V,,,,,*35
2020-05-21 11-00-19$IIHRM,0.4,0.0,0.0,0.0,V,,,,,*05
2020-05-21 11-00-19$GPAPB,A,A,,,N,,,,T,,,T,,,A*67
2020-05-21 11-00-19$GPDTM,W84,,0.0,N,0.0,E,+0.0,W84*44
2020-05-21 11-00-19$GPGGA,030002.29,0228.5853,S,03443.9006,W,1,09,01,+0046,M,-008,M,,*4F
2020-05-21 11-00-19$GPGLL,0228.5853,S,03443.9006,W,030002.29,A,A*60
2020-05-21 11-00-19$GPRMB,A,,,,,,,,,,,,,A*4A
2020-05-21 11-00-19$GPRMC,030002.29,A,0228.5853,S,03443.9006,W,013.6,127.2,210520,20.,W,A*2A
2020-05-21 11-00-19$GPVTG,127.2,T,127.2,M,013.6,N,025.2,K,A*22
2020-05-21 11-00-19$GPZDA,030004.00,21,05,2020,01,00*66
2020-05-21 11-00-19$GPGGA,030001.29,0228.5830,S,03443.9037,W,1,09,01,+0046,M,-008,M,,*4B
2020-05-21 11-00-19$HEHDT,123.2,T*2D
2020-05-21 11-00-19$WIMWD,102.2,T,,,017.2,N,,M*12
2020-05-21 11-00-19$WIMWV,339.0,T,017.2,N,A*28
2020-05-21 11-00-19$WIMWV,350.0,R,030.1,N,A*27
2020-05-21 11-00-19$AGHTD,V,2.2,R,S,T,15.0,10.0,,10.00,125.0,,,T,A,A,,123.15*13
2020-05-21 11-00-19$AGROR,2.2,A,,V,B*1E
2020-05-21 11-00-19$AGRSA,2.5,A,,V*78
2020-05-21 11-00-19$PYDKN,NF COMMAND,V,,,*5D
2020-05-21 11-00-19$IITRM,-1.2,0.0,0.0,0.0,V,,,,,*33
2020-05-21 11-00-19$IIHRM,0.2,0.0,0.0,0.0,V,,,,,*03
2020-05-21 11-00-19$VDVBW,014.36,,A,00.00,00.00,V,,V,00.00,V*76
2020-05-21 11-00-19$VDVLW,9461.19,N,8610.07,N*55
2020-05-21 11-00-19!AIVDO,1,1,,,177:=V0128MQ0e5vUCplv3n404H0,0*6D
2020-05-21 11-00-19$INWPL,0319.674,S,03339.190,W,042*6E
2020-05-21 11-00-19$INWPL,2930.470,N,07700.712,W,041*73
2020-05-21 11-00-19$INWPL,3148.567,N,08017.640,W,040*7B
2020-05-21 11-00-19$INWPL,3423.073,S,01736.760,E,043*71
2020-05-21 11-00-19$IIMHU,87.3,23.0,25.1,C*06
2020-05-21 11-00-19$IIMMB,3.0,I,0.0,B*4A
2020-05-21 11-00-19$IIMTA,27.4,C*04
2020-05-21 11-00-19$IIMWD,324.0,T,87.2,M,28.2,N,14.5,M*74
2020-05-21 11-00-19$IIMWV,324.0,R,14.5,M,A*0B
2020-05-21 11-00-19$IIMWV,324.0,T,14.5,M,A*0D
2020-05-21 11-00-19$IIRAI,0.00,60,0.00,A*1D
2020-05-21 11-00-19$IIVWR,36.0,L,28.2,N,14.5,M,0.0,K*6A
2020-05-21 11-00-19$IIVWT,36.0,L,18.6,N,9.6,M,0.0,K*54
2020-05-21 11-00-19$HEHCR,123.2,A,S,-00.5*5C
2020-05-21 11-00-19$HEHDT,123.2,T*2D
2020-05-21 11-00-19$HEHDT,123.2,T*2D
2020-05-21 11-00-19$TIROT,0000.6,A*0D
2020-05-21 11-00-20$IITRM,-1.3,0.0,0.0,0.0,V,,,,,*32
2020-05-21 11-00-20$IIHRM,0.1,0.0,0.0,0.0,V,,,,,*00
2020-05-21 11-00-20$GPAPB,A,A,,,N,,,,T,,,T,,,A*67
2020-05-21 11-00-20$GPDTM,W84,,0.0,N,0.0,E,+0.0,W84*44
2020-05-21 11-00-20$GPGGA,030004.29,0228.5899,S,03443.8946,W,1,09,01,+0046,M,-008,M,,*43
2020-05-21 11-00-20$GPGLL,0228.5876,S,03443.8976,W,030003.29,A,A*69
2020-05-21 11-00-20$GPRMB,A,,,,,,,,,,,,,A*4A
2020-05-21 11-00-20$GPRMC,030003.29,A,0228.5876,S,03443.8976,W,013.6,127.2,210520,20.,W,A*23
2020-05-21 11-00-20$GPVTG,127.2,T,127.2,M,013.6,N,025.3,K,A*23
2020-05-21 11-00-20$GPZDA,030005.00,21,05,2020,01,00*67
2020-05-21 11-00-20$GPGGA,030002.29,0228.5853,S,03443.9006,W,1,09,01,+0046,M,-008,M,,*4F
2020-05-21 11-00-20$HEHDT,123.2,T*2D
2020-05-21 11-00-20$WIMWD,091.8,T,,,009.0,N,,M*1E
2020-05-21 11-00-20$WIMWV,328.6,T,009.0,N,A*23
2020-05-21 11-00-20$WIMWV,350.0,R,021.6,N,A*20
2020-05-21 11-00-20$AGHTD,V,2.1,R,S,T,15.0,10.0,,10.00,125.0,,,T,A,A,,123.15*10
2020-05-21 11-00-20$AGROR,2.1,A,,V,B*1D
2020-05-21 11-00-20$AGRSA,2.5,A,,V*78
2020-05-21 11-00-20$PYDKN,NF COMMAND,V,,,*5D
2020-05-21 11-00-20$IITRM,-1.4,0.0,0.0,0.0,V,,,,,*35
2020-05-21 11-00-20$IIHRM,0.2,0.0,0.0,0.0,V,,,,,*03
2020-05-21 11-00-20$VDVBW,014.36,,A,00.00,00.00,V,,V,00.00,V*76
2020-05-21 11-00-20$VDVLW,9461.20,N,8610.07,N*5F
2020-05-21 11-00-20!AIVDO,1,1,,,177:=V00j8MQ0f1vUCk4v3n604H0,0*72
2020-05-21 11-00-20$INHBT,1,A,8*3D
2020-05-21 11-00-20$INWPL,0608.000,N,09504.000,E,047*6E
2020-05-21 11-00-20$INWPL,3440.346,S,02606.753,E,046*75
2020-05-21 11-00-20$INWPL,3505.003,S,02209.842,E,045*70
2020-05-21 11-00-20$IIMHU,87.3,23.0,25.1,C*06
2020-05-21 11-00-20$IIMMB,3.0,I,0.0,B*4A
2020-05-21 11-00-20$IIMTA,27.4,C*04
2020-05-21 11-00-20$IIMWD,325.0,T,88.2,M,28.0,N,14.4,M*79
2020-05-21 11-00-20$IIMWV,325.0,R,14.4,M,A*0B
2020-05-21 11-00-20$IIMWV,325.0,T,14.4,M,A*0D
2020-05-21 11-00-20$IIRAI,0.00,60,0.00,A*1D
2020-05-21 11-00-20$IIVWR,35.0,L,28.0,N,14.4,M,0.0,K*6A
2020-05-21 11-00-20$IIVWT,35.0,L,18.2,N,9.4,M,0.0,K*51
2020-05-21 11-00-20$HEHCR,123.2,A,S,-00.5*5C
2020-05-21 11-00-20$HEHDT,123.2,T*2D
2020-05-21 11-00-20$HEHDT,123.2,T*2D
2020-05-21 11-00-20$TIROT,0000.3,A*08
2020-05-21 11-00-21$IITRM,-1.2,0.0,0.0,0.0,V,,,,,*33
2020-05-21 11-00-21$IIHRM,0.2,0.0,0.0,0.0,V,,,,,*03
2020-05-21 11-00-21$GPAPB,A,A,,,N,,,,T,,,T,,,A*67
2020-05-21 11-00-21$GPDTM,W84,,0.0,N,0.0,E,+0.0,W84*44
2020-05-21 11-00-21$GPGGA,030005.29,0228.5922,S,03443.8916,W,1,09,01,+0046,M,-008,M,,*46
2020-05-21 11-00-21$GPGLL,0228.5899,S,03443.8946,W,030004.29,A,A*6C
2020-05-21 11-00-21$GPRMB,A,,,,,,,,,,,,,A*4A
2020-05-21 11-00-21$GPRMC,030004.29,A,0228.5899,S,03443.8946,W,013.6,127.2,210520,20.,W,A*26
2020-05-21 11-00-21$GPVTG,127.2,T,127.2,M,013.6,N,025.2,K,A*22
2020-05-21 11-00-21$GPZDA,030006.00,21,05,2020,01,00*64
2020-05-21 11-00-21$GPGGA,030003.29,0228.5876,S,03443.8976,W,1,09,01,+0046,M,-008,M,,*46
2020-05-21 11-00-21$HEHDT,123.2,T*2D
2020-05-21 11-00-21$WIMWD,112.7,T,,,007.2,N,,M*17
2020-05-21 11-00-21$WIMWV,349.5,T,007.2,N,A*2B
2020-05-21 11-00-21$WIMWV,359.0,R,020.6,N,A*28
2020-05-21 11-00-21$AGHTD,V,2.0,R,S,T,15.0,10.0,,10.00,125.0,,,T,A,A,,123.15*11
2020-05-21 11-00-21$AGROR,2.0,A,,V,B*1C
2020-05-21 11-00-21$AGRSA,2.5,A,,V*78
2020-05-21 11-00-21$PYDKN,NF COMMAND,V,,,*5D
2020-05-21 11-00-21$IITRM,-1.1,0.0,0.0,0.0,V,,,,,*30
2020-05-21 11-00-21$IIHRM,0.1,0.0,0.0,0.0,V,,,,,*00
2020-05-21 11-00-21$VDVBW,014.36,,A,00.00,00.00,V,,V,00.00,V*76
2020-05-21 11-00-21$VDVLW,9461.20,N,8610.07,N*5F
2020-05-21 11-00-21!AIVDO,1,1,,,177:=V00R8MQ0fuvUCeDv3n:04H0,0*7C
2020-05-21 11-00-21$INHBT,1,A,9*3C
2020-05-21 11-00-21$INWPL,0248.000,N,10100.000,E,051*61
2020-05-21 11-00-21$INWPL,0254.900,N,10053.000,E,050*63
2020-05-21 11-00-21$INWPL,0300.000,N,10047.000,E,049*67
2020-05-21 11-00-21$IIMHU,87.3,23.0,25.1,C*06
2020-05-21 11-00-21$IIMMB,3.0,I,0.0,B*4A
2020-05-21 11-00-21$IIMTA,27.4,C*04
2020-05-21 11-00-21$IIMWD,325.0,T,88.2,M,28.0,N,14.4,M*79
2020-05-21 11-00-21$IIMWV,325.0,R,14.4,M,A*0B
2020-05-21 11-00-21$IIMWV,325.0,T,14.4,M,A*0D
2020-05-21 11-00-21$IIRAI,0.00,60,0.00,A*1D
2020-05-21 11-00-21$IIVWR,35.0,L,28.0,N,14.4,M,0.0,K*6A
2020-05-21 11-00-21$HEHCR,123.2,A,S,-00.5*5C
2020-05-21 11-00-21$IIVWT,35.0,L,18.2,N,9.4,M,0.0,K*51
2020-05-21 11-00-21$HEHDT,123.2,T*2D
2020-05-21 11-00-21$HEHDT,123.2,T*2D
2020-05-21 11-00-21$TIROT,0000.2,A*09
2020-05-21 11-00-22$IITRM,-1.3,0.0,0.0,0.0,V,,,,,*32
2020-05-21 11-00-22$IIHRM,0.2,0.0,0.0,0.0,V,,,,,*03
2020-05-21 11-00-22$GPAPB,A,A,,,N,,,,T,,,T,,,A*67
2020-05-21 11-00-22$GPDTM,W84,,0.0,N,0.0,E,+0.0,W84*44
2020-05-21 11-00-22$GPGGA,030006.29,0228.5945,S,03443.8886,W,1,09,01,+0046,M,-008,M,,*4C
2020-05-21 11-00-22$GPGLL,0228.5922,S,03443.8916,W,030005.29,A,A*69
2020-05-21 11-00-22$GPRMB,A,,,,,,,,,,,,,A*4A
2020-05-21 11-00-22$GPRMC,030005.29,A,0228.5922,S,03443.8916,W,013.6,127.2,210520,20.,W,A*23
2020-05-21 11-00-22$GPVTG,127.2,T,127.2,M,013.6,N,025.2,K,A*22
2020-05-21 11-00-22$GPZDA,030007.00,21,05,2020,01,00*65
2020-05-21 11-00-22$GPGGA,030004.29,0228.5899,S,03443.8946,W,1,09,01,+0046,M,-008,M,,*43
2020-05-21 11-00-22$HEHDT,123.2,T*2D
2020-05-21 11-00-22$WIMWD,134.4,T,,,009.8,N,,M*14
2020-05-21 11-00-22$WIMWV,007.0,R,023.4,N,A*21
2020-05-21 11-00-22$WIMWV,011.2,T,009.8,N,A*26
2020-05-21 11-00-22$AGHTD,V,1.9,R,S,T,15.0,10.0,,10.00,125.0,,,T,A,A,,123.15*1B
2020-05-21 11-00-22$AGROR,1.9,A,,V,B*16
2020-05-21 11-00-22$AGRSA,2.3,A,,V*7E
2020-05-21 11-00-22$PYDKN,NF COMMAND,V,,,*5D
2020-05-21 11-00-22$IITRM,-1.4,0.0,0.0,0.0,V,,,,,*35
2020-05-21 11-00-22$IIHRM,0.2,0.0,0.0,0.0,V,,,,,*03
2020-05-21 11-00-22$VDVBW,014.36,,A,00.00,00.00,V,,V,00.00,V*76
2020-05-21 11-00-22$VDVLW,9461.20,N,8610.08,N*50
2020-05-21 11-00-22!AIVDO,1,1,,,177:=V00B8MQ0gqvUCWTv3n<04H0,0*4D
2020-05-21 11-00-22$INHBT,1,A,0*35
2020-05-21 11-00-22$INWPL,0152.300,N,10215.600,E,055*6F
2020-05-21 11-00-22$INWPL,0216.900,N,10147.300,E,054*66
2020-05-21 11-00-22$INWPL,0222.100,N,10139.900,E,053*6D
2020-05-21 11-00-23$IIMHU,87.3,23.0,25.1,C*06
2020-05-21 11-00-23$IIMMB,3.0,I,0.0,B*4A
2020-05-21 11-00-23$IIMTA,27.4,C*04
2020-05-21 11-00-23$IIMWD,325.0,T,88.2,M,27.8,N,14.3,M*79
2020-05-21 11-00-23$HEHCR,123.2,A,S,-00.5*5C
2020-05-21 11-00-23$IIMWV,325.0,R,14.3,M,A*0C
2020-05-21 11-00-23$HEHDT,123.2,T*2D
2020-05-21 11-00-23$IIMWV,325.0,T,14.3,M,A*0A
2020-05-21 11-00-23$HEHDT,123.2,T*2D
2020-05-21 11-00-23$IIRAI,0.00,60,0.00,A*1D
2020-05-21 11-00-23$TIROT,0000.1,A*0A
2020-05-21 11-00-23$IIVWR,35.0,L,27.8,N,14.3,M,0.0,K*6A
2020-05-21 11-00-23$IIVWT,35.0,L,18.0,N,9.3,M,0.0,K*54
2020-05-21 11-00-23$IITRM,-1.2,0.0,0.0,0.0,V,,,,,*33
2020-05-21 11-00-23$IIHRM,0.0,0.0,0.0,0.0,V,,,,,*01
2020-05-21 11-00-23$GPAPB,A,A,,,N,,,,T,,,T,,,A*67
2020-05-21 11-00-23$GPDTM,W84,,0.0,N,0.0,E,+0.0,W84*44
2020-05-21 11-00-23$GPGGA,030007.29,0228.5968,S,03443.8856,W,1,09,01,+0046,M,-008,M,,*4F
2020-05-21 11-00-23$GPGLL,0228.5945,S,03443.8886,W,030006.29,A,A*63
2020-05-21 11-00-23$GPRMB,A,,,,,,,,,,,,,A*4A
2020-05-21 11-00-23$GPRMC,030006.29,A,0228.5945,S,03443.8886,W,013.6,127.2,210520,20.,W,A*29
2020-05-21 11-00-23$GPVTG,127.2,T,127.2,M,013.6,N,025.2,K,A*22
2020-05-21 11-00-23$GPZDA,030008.00,21,05,2020,01,00*6A
2020-05-21 11-00-23$GPGGA,030005.29,0228.5922,S,03443.8916,W,1,09,01,+0046,M,-008,M,,*46
2020-05-21 11-00-23$HEHDT,123.1,T*2E
2020-05-21 11-00-23$WIMWD,081.9,T,,,006.3,N,,M*12
2020-05-21 11-00-23$WIMWV,318.7,T,006.3,N,A*2D
2020-05-21 11-00-23$WIMWV,350.0,R,018.6,N,A*2A
2020-05-21 11-00-23$AGHTD,V,1.7,R,S,T,15.0,10.0,,10.00,125.0,,,T,A,A,,123.15*15
2020-05-21 11-00-23$AGROR,1.7,A,,V,B*18
2020-05-21 11-00-23$AGRSA,2.1,A,,V*7C
2020-05-21 11-00-23$PYDKN,NF COMMAND,V,,,*5D
2020-05-21 11-00-23$IITRM,-1.3,0.0,0.0,0.0,V,,,,,*32
2020-05-21 11-00-23$IIHRM,0.1,0.0,0.0,0.0,V,,,,,*00
2020-05-21 11-00-23$VDVBW,014.35,,A,00.00,00.00,V,,V,00.00,V*75
2020-05-21 11-00-23$VDVLW,9461.21,N,8610.08,N*51
2020-05-21 11-00-23!AIVDO,1,1,,B,177:=V00B8MQ0hmvUCQlv3n>00Rw,0*79
2020-05-21 11-00-23$INHBT,1,A,1*34
2020-05-21 11-00-23$INWPL,0102.896,N,10338.314,E,059*6C
2020-05-21 11-00-23$INWPL,0112.500,N,10322.500,E,058*66
2020-05-21 11-00-23$INWPL,0124.500,N,10309.000,E,057*60
2020-05-21 11-00-24$HEHCR,123.1,A,S,-00.5*5F
2020-05-21 11-00-24$HEHDT,123.1,T*2E
2020-05-21 11-00-24$IIMHU,87.3,23.0,25.1,C*06
2020-05-21 11-00-24$TIROT,-000.2,A*14
2020-05-21 11-00-24$IIMMB,3.0,I,0.0,B*4A
2020-05-21 11-00-24$TIROT,-000.4,A*12
2020-05-21 11-00-24$IIMTA,27.4,C*04
2020-05-21 11-00-24$IIMWD,325.0,T,88.2,M,27.6,N,14.2,M*76
2020-05-21 11-00-24$IIMWV,325.0,R,14.2,M,A*0D
2020-05-21 11-00-24$IIMWV,325.0,T,14.2,M,A*0B
2020-05-21 11-00-24$IIRAI,0.00,60,0.00,A*1D
2020-05-21 11-00-24$IIVWR,35.0,L,27.6,N,14.2,M,0.0,K*65
2020-05-21 11-00-24$IIVWT,35.0,L,17.9,N,9.2,M,0.0,K*53
2020-05-21 11-00-24$IITRM,-1.5,0.0,0.0,0.0,V,,,,,*34
2020-05-21 11-00-24$IIHRM,0.3,0.0,0.0,0.0,V,,,,,*02
2020-05-21 11-00-24$GPAPB,A,A,,,N,,,,T,,,T,,,A*67
2020-05-21 11-00-24$GPDTM,W84,,0.0,N,0.0,E,+0.0,W84*44
2020-05-21 11-00-24$GPGGA,030008.29,0228.5990,S,03443.8826,W,1,09,01,+0046,M,-008,M,,*40
2020-05-21 11-00-24$GPGLL,0228.5968,S,03443.8856,W,030007.29,A,A*60
2020-05-21 11-00-24$GPRMB,A,,,,,,,,,,,,,A*4A
2020-05-21 11-00-24$GPRMC,030007.29,A,0228.5968,S,03443.8856,W,013.6,127.2,210520,20.,W,A*2A
2020-05-21 11-00-24$GPVTG,127.2,T,127.2,M,013.6,N,025.2,K,A*22
2020-05-21 11-00-24$GPZDA,030009.00,21,05,2020,01,00*6B
2020-05-21 11-00-24$GPGGA,030006.29,0228.5945,S,03443.8886,W,1,09,01,+0046,M,-008,M,,*4C
2020-05-21 11-00-24$HEHDT,123.1,T*2E
2020-05-21 11-00-24$WIMWD,094.2,T,,,009.1,N,,M*10
2020-05-21 11-00-24$WIMWV,331.1,T,009.1,N,A*2D
2020-05-21 11-00-24$WIMWV,351.0,R,021.8,N,A*2F
2020-05-21 11-00-24$AGHTD,V,1.6,R,S,T,15.0,10.0,,10.00,125.0,,,T,A,A,,123.12*13
2020-05-21 11-00-24$AGROR,1.6,A,,V,B*19
2020-05-21 11-00-24$AGRSA,2.0,A,,V*7D
2020-05-21 11-00-24$PYDKN,NF COMMAND,V,,,*5D
2020-05-21 11-00-24$IITRM,-1.6,0.0,0.0,0.0,V,,,,,*37
2020-05-21 11-00-24$IIHRM,0.2,0.0,0.0,0.0,V,,,,,*03
2020-05-21 11-00-24$VDVBW,014.35,,A,00.00,00.00,V,,V,00.00,V*75
2020-05-21 11-00-24$VDVLW,9461.21,N,8610.09,N*50
2020-05-21 11-00-24!AIVDO,1,1,,,177:=V0w28MQ0iivUCL4v3n@04H0,0*6B
2020-05-21 11-00-24$INWPL,0108.699,N,10345.999,E,061*69
2020-05-21 11-00-24$INWPL,0110.000,N,10347.800,E,062*66
2020-05-21 11-00-24$INWPL,0114.100,N,10357.400,E,063*6F
2020-05-21 11-00-24$INWPL,0117.000,N,10420.000,E,064*69
2020-05-21 11-00-25$HEHCR,123.1,A,S,-00.5*5F
2020-05-21 11-00-25$HEHDT,123.1,T*2E
2020-05-21 11-00-25$TIROT,-000.6,A*10
2020-05-21 11-00-25$TIROT,-000.7,A*11
2020-05-21 11-00-25$IIMHU,87.3,23.0,25.1,C*06
2020-05-21 11-00-25$IIMMB,3.0,I,0.0,B*4A
2020-05-21 11-00-25$IIMTA,27.4,C*04
2020-05-21 11-00-25$IIMWD,325.0,T,88.1,M,27.6,N,14.2,M*75
2020-05-21 11-00-25$IIMWV,325.0,R,14.2,M,A*0D
2020-05-21 11-00-25$IIMWV,325.0,T,14.2,M,A*0B
2020-05-21 11-00-25$IIRAI,0.00,60,0.00,A*1D
2020-05-21 11-00-25$IIVWR,35.0,L,27.6,N,14.2,M,0.0,K*65
2020-05-21 11-00-25$IIVWT,35.0,L,17.9,N,9.2,M,0.0,K*53
2020-05-21 11-00-25$IITRM,-1.5,0.0,0.0,0.0,V,,,,,*34
2020-05-21 11-00-25$IIHRM,0.1,0.0,0.0,0.0,V,,,,,*00
2020-05-21 11-00-25$GPAPB,A,A,,,N,,,,T,,,T,,,A*67
2020-05-21 11-00-25$GPDTM,W84,,0.0,N,0.0,E,+0.0,W84*44
2020-05-21 11-00-25$GPGGA,030009.29,0228.6013,S,03443.8796,W,1,09,01,+0046,M,-008,M,,*44
2020-05-21 11-00-25$GPGLL,0228.5990,S,03443.8826,W,030008.29,A,A*6F
2020-05-21 11-00-25$GPRMB,A,,,,,,,,,,,,,A*4A
2020-05-21 11-00-25$GPRMC,030008.29,A,0228.5990,S,03443.8826,W,013.6,127.2,210520,20.,W,A*25
2020-05-21 11-00-25$GPVTG,127.2,T,127.2,M,013.6,N,025.2,K,A*22
2020-05-21 11-00-25$GPZDA,030010.00,21,05,2020,01,00*63
2020-05-21 11-00-25$GPGGA,030008.29,0228.5990,S,03443.8826,W,1,09,01,+0046,M,-008,M,,*40
2020-05-21 11-00-25$HEHDT,123.1,T*2E
2020-05-21 11-00-25$WIMWD,093.6,T,,,011.2,N,,M*19
2020-05-21 11-00-25$WIMWV,330.5,T,011.2,N,A*22
2020-05-21 11-00-25$WIMWV,349.0,R,023.7,N,A*2B
2020-05-21 11-00-25$AGHTD,V,1.6,R,S,T,15.0,10.0,,10.00,125.0,,,T,A,A,,123.12*13
2020-05-21 11-00-25$AGROR,1.6,A,,V,B*19
2020-05-21 11-00-25$AGRSA,1.9,A,,V*77
2020-05-21 11-00-25$PYDKN,NF COMMAND,V,,,*5D
2020-05-21 11-00-25$IITRM,-1.5,0.0,0.0,0.0,V,,,,,*34
2020-05-21 11-00-25$IIHRM,0.4,0.0,0.0,0.0,V,,,,,*05
2020-05-21 11-00-25$VDVBW,014.35,,A,00.00,00.00,V,,V,00.00,V*75
2020-05-21 11-00-25$VDVLW,9461.22,N,8610.09,N*53
2020-05-21 11-00-25!AIVDO,1,1,,,177:=V0wB8MQ0jevUCFTv3nB04H0,0*7C
2020-05-21 11-00-25$INWPL,0135.000,N,10440.000,E,065*6E
2020-05-21 11-00-25$INWPL,0304.000,N,10522.000,E,066*68
2020-05-21 11-00-25$INWPL,0900.000,N,10912.000,E,067*68
2020-05-21 11-00-25$INWPL,1619.000,N,11353.000,E,068*6F
2020-05-21 11-00-26$HEHCR,123.1,A,S,-00.5*5F
2020-05-21 11-00-26$HEHDT,123.1,T*2E
2020-05-21 11-00-26$TIROT,-000.4,A*12
2020-05-21 11-00-26$TIROT,-000.4,A*12
2020-05-21 11-00-26$IIMHU,87.3,23.0,25.1,C*06
2020-05-21 11-00-26$IIMMB,3.0,I,0.0,B*4A
2020-05-21 11-00-26$IIMTA,27.4,C*04
2020-05-21 11-00-26$IIMWD,325.0,T,88.1,M,27.8,N,14.3,M*7A
2020-05-21 11-00-26$IIMWV,325.0,R,14.3,M,A*0C
2020-05-21 11-00-26$IIMWV,325.0,T,14.3,M,A*0A
2020-05-21 11-00-26$IIRAI,0.00,60,0.00,A*1D
2020-05-21 11-00-26$IIVWR,35.0,L,27.8,N,14.3,M,0.0,K*6A
2020-05-21 11-00-26$IIVWT,35.0,L,18.0,N,9.3,M,0.0,K*54
2020-05-21 11-00-26$IITRM,-1.6,0.0,0.0,0.0,V,,,,,*37
2020-05-21 11-00-26$IIHRM,0.3,0.0,0.0,0.0,V,,,,,*02
2020-05-21 11-00-26$GPAPB,A,A,,,N,,,,T,,,T,,,A*67
2020-05-21 11-00-26$GPDTM,W84,,0.0,N,0.0,E,+0.0,W84*44
2020-05-21 11-00-26$GPGGA,030010.29,0228.6037,S,03443.8766,W,1,09,01,+0046,M,-008,M,,*45
2020-05-21 11-00-26$GPGLL,0228.6013,S,03443.8796,W,030009.29,A,A*6B
2020-05-21 11-00-26$GPRMB,A,,,,,,,,,,,,,A*4A
2020-05-21 11-00-26$GPRMC,030009.29,A,0228.6013,S,03443.8796,W,013.6,127.1,210520,20.,W,A*22
2020-05-21 11-00-26$GPVTG,127.1,T,127.1,M,013.6,N,025.3,K,A*23
2020-05-21 11-00-26$GPZDA,030011.00,21,05,2020,01,00*62
2020-05-21 11-00-26$GPGGA,030009.29,0228.6013,S,03443.8796,W,1,09,01,+0046,M,-008,M,,*44
2020-05-21 11-00-26$HEHDT,123.1,T*2E
2020-05-21 11-00-26$WIMWD,084.6,T,,,005.0,N,,M*18
2020-05-21 11-00-26$WIMWV,321.5,T,005.0,N,A*25
2020-05-21 11-00-26$WIMWV,353.0,R,017.6,N,A*26
2020-05-21 11-00-26$AGHTD,V,1.6,R,S,T,15.0,10.0,,10.00,125.0,,,T,A,A,,123.12*13
2020-05-21 11-00-26$AGROR,1.6,A,,V,B*19
2020-05-21 11-00-26$AGRSA,1.8,A,,V*76
2020-05-21 11-00-26$PYDKN,NF COMMAND,V,,,*5D
2020-05-21 11-00-26$IITRM,-1.5,0.0,0.0,0.0,V,,,,,*34
2020-05-21 11-00-26$VDVBW,014.35,,A,00.00,00.00,V,,V,00.00,V*75
2020-05-21 11-00-26$VDVLW,9461.22,N,8610.09,N*53
2020-05-21 11-00-26$IIHRM,0.2,0.0,0.0,0.0,V,,,,,*03
2020-05-21 11-00-26$INHBT,1,A,3*36
2020-05-21 11-00-26$INWPL,2400.000,N,12000.500,E,070*6C
2020-05-21 11-00-26$INWPL,2531.000,N,12057.000,E,071*69
2020-05-21 11-00-26$INWPL,2700.000,N,12156.000,E,072*6A
2020-05-21 11-00-26!AIVDO,1,1,,,177:=V0wB8MQ0kavUC@luknD04H0,0*1A
2020-05-21 11-00-27$HEHCR,123.1,A,S,-00.5*5F
2020-05-21 11-00-27$HEHDT,123.1,T*2E
2020-05-21 11-00-27$TIROT,-000.2,A*14
2020-05-21 11-00-27$TIROT,-000.2,A*14
2020-05-21 11-00-27$IIMHU,87.3,23.0,25.1,C*06
2020-05-21 11-00-27$IIMMB,3.0,I,0.0,B*4A
2020-05-21 11-00-27$IIMTA,27.4,C*04
2020-05-21 11-00-27$IIMWD,325.0,T,88.1,M,27.8,N,14.3,M*7A
2020-05-21 11-00-27$IIMWV,325.0,R,14.3,M,A*0C
2020-05-21 11-00-27$IIMWV,325.0,T,14.3,M,A*0A
2020-05-21 11-00-27$IIRAI,0.00,60,0.00,A*1D
2020-05-21 11-00-27$IIVWR,35.0,L,27.8,N,14.3,M,0.0,K*6A
2020-05-21 11-00-27$IIVWT,35.0,L,18.0,N,9.3,M,0.0,K*54
2020-05-21 11-00-27$IITRM,-1.3,0.0,0.0,0.0,V,,,,,*32
2020-05-21 11-00-27$IIHRM,0.4,0.0,0.0,0.0,V,,,,,*05
2020-05-21 11-00-27$GPAPB,A,A,,,N,,,,T,,,T,,,A*67
2020-05-21 11-00-27$GPDTM,W84,,0.0,N,0.0,E,+0.0,W84*44
2020-05-21 11-00-27$GPGGA,030011.29,0228.6059,S,03443.8736,W,1,09,01,+0046,M,-008,M,,*49
2020-05-21 11-00-27$GPGLL,0228.6037,S,03443.8766,W,030010.29,A,A*6A
2020-05-21 11-00-27$GPRMB,A,,,,,,,,,,,,,A*4A
2020-05-21 11-00-27$GPRMC,030011.29,A,0228.6059,S,03443.8736,W,013.6,127.2,210520,20.,W,A*2C2020-05-21 11-00-27$GPVTG,127.1,T,127.1,M,013.6,N,025.3,K,A*23
2020-05-21 11-00-27$GPZDA,030012.00,21,05,2020,01,00*61
2020-05-21 11-00-27$GPGGA,030010.29,0228.6037,S,03443.8766,W,1,09,01,+0046,M,-008,M,,*45
2020-05-21 11-00-27$HEHDT,123.1,T*2E
2020-05-21 11-00-27$WIMWD,119.2,T,,,008.3,N,,M*17
2020-05-21 11-00-27$WIMWV,001.0,R,021.8,N,A*29
2020-05-21 11-00-27$WIMWV,356.1,T,008.3,N,A*2F
2020-05-21 11-00-27$AGHTD,V,1.6,R,S,T,15.0,10.0,,10.00,125.0,,,T,A,A,,123.12*13
2020-05-21 11-00-27$AGROR,1.6,A,,V,B*19
2020-05-21 11-00-27$AGRSA,1.8,A,,V*76
2020-05-21 11-00-27$PYDKN,NF COMMAND,V,,,*5D
2020-05-21 11-00-27$IITRM,-1.3,0.0,0.0,0.0,V,,,,,*32
2020-05-21 11-00-27$VDVBW,014.35,,A,00.00,00.00,V,,V,00.00,V*75
2020-05-21 11-00-27$VDVLW,9461.22,N,8610.10,N*5B
2020-05-21 11-00-27$IIHRM,0.3,0.0,0.0,0.0,V,,,,,*02
2020-05-21 11-00-27$INHBT,1,A,4*31
2020-05-21 11-00-27$INWPL,3337.081,N,12321.145,E,074*66
2020-05-21 11-00-27$INWPL,3556.224,N,12100.298,E,075*69
2020-05-21 11-00-27$INWPL,3556.350,N,12046.600,E,076*6E
2020-05-21 11-00-27!AIVDO,1,1,,,177:=V0wR8MQ0lUvUC:luknF04H0,0*41
2020-05-21 11-00-28$HEHCR,123.1,A,S,-00.5*5F
2020-05-21 11-00-28$HEHDT,123.1,T*2E
2020-05-21 11-00-28$TIROT,-000.1,A*17
2020-05-21 11-00-28$TIROT,-000.1,A*17
2020-05-21 11-00-28$IIMHU,87.3,23.0,25.1,C*06
2020-05-21 11-00-28$IIMMB,3.0,I,0.0,B*4A
2020-05-21 11-00-28$IIMTA,27.4,C*04
2020-05-21 11-00-28$IIMWD,325.0,T,88.1,M,27.8,N,14.3,M*7A
2020-05-21 11-00-28$IIMWV,325.0,R,14.3,M,A*0C
2020-05-21 11-00-28$IIMWV,325.0,T,14.3,M,A*0A
2020-05-21 11-00-28$IIRAI,0.00,60,0.00,A*1D
2020-05-21 11-00-28$IIVWR,35.0,L,27.8,N,14.3,M,0.0,K*6A
2020-05-21 11-00-28$IIVWT,35.0,L,18.0,N,9.3,M,0.0,K*54
2020-05-21 11-00-28$IITRM,-1.3,0.0,0.0,0.0,V,,,,,*32
2020-05-21 11-00-28$IIHRM,0.1,0.0,0.0,0.0,V,,,,,*00
2020-05-21 11-00-28$GPAPB,A,A,,,N,,,,T,,,T,,,A*67
2020-05-21 11-00-28$GPDTM,W84,,0.0,N,0.0,E,+0.0,W84*44
2020-05-21 11-00-28$GPGGA,030012.29,0228.6082,S,03443.8706,W,1,09,01,+0046,M,-008,M,,*4F
2020-05-21 11-00-28$GPGLL,0228.6059,S,03443.8736,W,030011.29,A,A*66
2020-05-21 11-00-28$GPRMB,A,,,,,,,,,,,,,A*4A
2020-05-21 11-00-28$GPRMC,030012.29,A,0228.6082,S,03443.8706,W,013.6,127.2,210520,20.,W,A*2A
2020-05-21 11-00-28$GPVTG,127.2,T,127.2,M,013.6,N,025.3,K,A*23
2020-05-21 11-00-28$GPZDA,030013.00,21,05,2020,01,00*60
